ACCELEROMETER X (m/s²),ACCELEROMETER Y (m/s²),ACCELEROMETER Z (m/s²),GRAVITY X (m/s²),GRAVITY Y (m/s²),GRAVITY Z (m/s²),LINEAR ACCELERATION X (m/s²),LINEAR ACCELERATION Y (m/s²),LINEAR ACCELERATION Z (m/s²),GYROSCOPE X (rad/s),GYROSCOPE Y (rad/s),GYROSCOPE Z (rad/s),LIGHT (lux),MAGNETIC FIELD X (μT),MAGNETIC FIELD Y (μT),MAGNETIC FIELD Z (μT),ORIENTATION Z (azimuth °),ORIENTATION X (pitch °),ORIENTATION Y (roll °),PROXIMITY (m),ATMOSPHERIC PRESSURE (hPa),SOUND LEVEL (dB),LOCATION Latitude : ,LOCATION Longitude : ,LOCATION Altitude ( m),LOCATION Altitude-google ( m),LOCATION Altitude-atmospheric pressure ( m),LOCATION Speed ( Kmh),LOCATION Accuracy ( m),LOCATION ORIENTATION (°),Satellites in range,GPS NMEA,Time since start in ms ,YYYY-MO-DD HH-MI-SS_SSS
-0.3336,3.0276,9.1786,,,,,,,,,,1355.0,25.19,-20.96,-31.74,254.67,-22.97,6.36,5.0,1020.3,67.002,50.36929,-4.138861,61.0,NaN,,0.0,3.0,,9 / 16,"$GPGSV,3,3,10,07,14,323,,29,03,082,*7A::$GPGGA,183929,5022.157128,N,00408.331995,W,2,08,1.6,16.0,M,47.0,M,,*65::$GPVTG,,T,,M,0.0,N,0.0,K,D*26::$GLGSV,1,1,0,*79::$GPRMC,183929,A,5022.157128,N,00408.331995,W,0.0,,260417,4.8,W,D*37::$GPGSA,A,3,04,08,10,16,18,21,26,27,,,,,1.8,1.6,0.9*34",4,2017-04-26 19:39:53:202
-0.7421,3.2654,9.8754,,,,,,,,,,1355.0,24.18,-19.75,-33.41,249.77,-18.24,2.08,5.0,1020.3,60.951,50.36929,-4.138861,61.0,NaN,,0.0,3.0,,9 / 16,"$GPGSV,3,3,10,07,14,323,,29,03,082,*7A::$GPGGA,183929,5022.157128,N,00408.331995,W,2,08,1.6,16.0,M,47.0,M,,*65::$GPVTG,,T,,M,0.0,N,0.0,K,D*26::$GLGSV,1,1,0,*79::$GPRMC,183929,A,5022.157128,N,00408.331995,W,0.0,,260417,4.8,W,D*37::$GPGSA,A,3,04,08,10,16,18,21,26,27,,,,,1.8,1.6,0.9*34",206,2017-04-26 19:39:53:404
-0.4542,2.9015,8.0898,,,,,,,,,,1336.0,22.82,-18.45,-34.98,254.52,-18.25,4.3,5.0,1020.34,60.951,50.36929,-4.138861,61.0,NaN,,0.0,3.0,,9 / 16,"$GPGSV,3,3,10,07,14,323,,29,03,082,*7A::$GPGGA,183930,5022.157128,N,00408.331995,W,2,08,1.6,16.0,M,47.0,M,,*6D::$GPVTG,,T,,M,0.0,N,0.0,K,D*26::$GLGSV,1,1,0,*79::$GPRMC,183930,A,5022.157128,N,00408.331995,W,0.0,,260417,4.8,W,D*3F::$GPGSA,A,3,04,08,10,16,18,21,26,27,,,,,1.8,1.6,0.9*34",404,2017-04-26 19:39:53:602
0.0101,2.3512,9.7265,,,,,,,,,,1336.0,21.93,-17.76,-36.01,257.53,-19.7,3.21,5.0,1020.31,65.969,50.36929,-4.138861,61.0,NaN,,0.0,3.0,,9 / 16,"$GPGSV,3,3,10,07,14,323,,29,03,082,*7A::$GPGGA,183930,5022.157128,N,00408.331995,W,2,08,1.6,16.0,M,47.0,M,,*6D::$GPVTG,,T,,M,0.0,N,0.0,K,D*26::$GLGSV,1,1,0,*79::$GPRMC,183930,A,5022.157128,N,00408.331995,W,0.0,,260417,4.8,W,D*3F::$GPGSA,A,3,04,08,10,16,18,21,26,27,,,,,1.8,1.6,0.9*34",604,2017-04-26 19:39:53:802
0.2565,1.7267,9.5048,,,,,,,,,,1384.0,21.36,-16.94,-36.83,245.08,-10.29,-1.55,5.0,1020.31,65.969,50.36929,-4.138861,61.0,NaN,,0.0,3.0,,9 / 16,"$GPGSV,3,3,10,07,14,323,,29,03,082,*7A::$GPGGA,183930,5022.157128,N,00408.331995,W,2,08,1.6,16.0,M,47.0,M,,*6D::$GPVTG,,T,,M,0.0,N,0.0,K,D*26::$GLGSV,1,1,0,*79::$GPRMC,183930,A,5022.157128,N,00408.331995,W,0.0,,260417,4.8,W,D*3F::$GPGSA,A,3,04,08,10,16,18,21,26,27,,,,,1.8,1.6,0.9*34",804,2017-04-26 19:39:54:002
0.2358,1.7188,9.4791,,,,,,,,,,1378.0,21.3,-16.09,-37.78,247.56,-10.27,-1.42,5.0,1020.3,69.998,50.36929,-4.138861,61.0,NaN,,0.0,3.0,,9 / 16,"$GPGSV,3,3,10,07,14,323,,29,03,082,*7A::$GPGGA,183930,5022.157128,N,00408.331995,W,2,08,1.6,16.0,M,47.0,M,,*6D::$GPVTG,,T,,M,0.0,N,0.0,K,D*26::$GLGSV,1,1,0,*79::$GPRMC,183930,A,5022.157128,N,00408.331995,W,0.0,,260417,4.8,W,D*3F::$GPGSA,A,3,04,08,10,16,18,21,26,27,,,,,1.8,1.6,0.9*34",1004,2017-04-26 19:39:54:202
0.23,1.6921,9.4772,,,,,,,,,,1378.0,20.95,-15.66,-38.6,247.72,-10.12,-1.39,5.0,1020.3,67.153,50.36929,-4.138861,61.0,NaN,,0.0,3.0,,8 / 15,"$GPGSV,3,1,09,04,00,000,36,08,16,271,22,16,80,243,34,18,28,120,30*76::$GPGGA,183930,5022.157128,N,00408.331995,W,2,08,1.6,16.0,M,47.0,M,,*6D::$GPVTG,,T,,M,0.0,N,0.0,K,D*26::$GLGSV,1,1,0,*79::$GPRMC,183930,A,5022.157128,N,00408.331995,W,0.0,,260417,4.8,W,D*3F::$GPGSA,A,3,04,08,10,16,18,21,26,27,,,,,1.8,1.6,0.9*34",1204,2017-04-26 19:39:54:402
0.0044,2.1011,9.66,,,,,,,,,,1341.0,20.68,-15.85,-39.05,250.73,-12.27,-0.03,5.0,1020.34,67.153,50.36929,-4.138861,61.0,NaN,,0.0,3.0,,8 / 15,"$GPGSV,3,3,09,29,03,082,*42::$GPGGA,183931,5022.157128,N,00408.331995,W,2,07,2.0,16.0,M,47.0,M,,*66::$GPVTG,,T,,M,0.0,N,0.0,K,D*26::$GLGSV,1,1,0,*79::$GPRMC,183931,A,5022.157128,N,00408.331995,W,0.0,,260417,4.8,W,D*3E::$GPGSA,A,3,04,08,16,18,21,26,27,,,,,,2.2,2.0,0.9*39",1404,2017-04-26 19:39:54:602
0.5564,2.9029,7.4466,,,,,,,,,,1341.0,21.14,-17.33,-38.03,263.56,-21.24,-4.27,5.0,1020.43,53.671,50.36929,-4.138861,61.0,NaN,,0.0,3.0,,8 / 15,"$GPGSV,3,3,09,29,03,082,*42::$GPGGA,183931,5022.157128,N,00408.331995,W,2,07,2.0,16.0,M,47.0,M,,*66::$GPVTG,,T,,M,0.0,N,0.0,K,D*26::$GLGSV,1,1,0,*79::$GPRMC,183931,A,5022.157128,N,00408.331995,W,0.0,,260417,4.8,W,D*3E::$GPGSA,A,3,04,08,16,18,21,26,27,,,,,,2.2,2.0,0.9*39",1604,2017-04-26 19:39:54:802
1.0376,2.7919,9.3116,,,,,,,,,,1170.0,22.55,-17.71,-36.41,253.88,-16.59,-6.36,5.0,1020.43,50.945,50.36929,-4.138861,61.0,NaN,,0.0,3.0,,8 / 15,"$GPGSV,3,3,09,29,03,082,*42::$GPGGA,183931,5022.157128,N,00408.331995,W,2,07,2.0,16.0,M,47.0,M,,*66::$GPVTG,,T,,M,0.0,N,0.0,K,D*26::$GLGSV,1,1,0,*79::$GPRMC,183931,A,5022.157128,N,00408.331995,W,0.0,,260417,4.8,W,D*3E::$GPGSA,A,3,04,08,16,18,21,26,27,,,,,,2.2,2.0,0.9*39",1803,2017-04-26 19:39:55:001
-2.4377,5.7653,7.139,,,,,,,,,,716.0,25.14,-18.11,-34.19,308.67,-37.39,18.85,5.0,1020.39,50.945,50.36929,-4.138861,61.0,NaN,,0.0,3.0,,8 / 15,"$GPGSV,3,3,09,29,03,082,*42::$GPGGA,183931,5022.157128,N,00408.331995,W,2,07,2.0,16.0,M,47.0,M,,*66::$GPVTG,,T,,M,0.0,N,0.0,K,D*26::$GLGSV,1,1,0,*79::$GPRMC,183931,A,5022.157128,N,00408.331995,W,0.0,,260417,4.8,W,D*3E::$GPGSA,A,3,04,08,16,18,21,26,27,,,,,,2.2,2.0,0.9*39",2004,2017-04-26 19:39:55:202
-1.1957,9.5262,6.9128,,,,,,,,,,716.0,27.04,-21.03,-31.18,306.63,-53.63,9.81,5.0,1020.39,54.653,50.36929,-4.138861,61.0,NaN,,0.0,3.0,,5 / 15,"$GPGSV,3,3,09,29,03,082,*42::$GPGGA,183931,5022.157128,N,00408.331995,W,2,07,2.0,16.0,M,47.0,M,,*66::$GPVTG,,T,,M,0.0,N,0.0,K,D*26::$GLGSV,1,1,0,*79::$GPRMC,183931,A,5022.157128,N,00408.331995,W,0.0,,260417,4.8,W,D*3E::$GPGSA,A,3,04,08,16,18,21,26,27,,,,,,2.2,2.0,0.9*39",2203,2017-04-26 19:39:55:401
-0.9481,6.9291,6.0481,,,,,,,,,,313.0,27.04,-21.03,-31.18,306.63,-53.63,9.81,5.0,1020.39,54.653,50.36929,-4.138861,61.0,NaN,,0.0,3.0,,5 / 15,"$GPGSV,3,3,09,29,03,082,*42::$GPGGA,183932,5022.157127,N,00408.331997,W,2,05,2.4,16.0,M,47.0,M,,*6E::$GPVTG,,T,,M,0.0,N,0.0,K,D*26::$GLGSV,1,1,0,*79::$GPRMC,183932,A,5022.157127,N,00408.331997,W,0.0,,260417,4.8,W,D*30::$GPGSA,A,3,04,16,21,26,27,,,,,,,,2.6,2.4,1.0*30",2405,2017-04-26 19:39:55:603
-3.0161,7.0077,7.3898,,,,,,,,,,313.0,26.84,-32.21,-23.34,267.46,-48.54,8.91,5.0,1020.4,58.294,50.36929,-4.138861,61.0,NaN,,0.0,3.0,,5 / 15,"$GPGSV,3,3,09,29,03,082,*42::$GPGGA,183932,5022.157127,N,00408.331997,W,2,05,2.4,16.0,M,47.0,M,,*6E::$GPVTG,,T,,M,0.0,N,0.0,K,D*26::$GLGSV,1,1,0,*79::$GPRMC,183932,A,5022.157127,N,00408.331997,W,0.0,,260417,4.8,W,D*30::$GPGSA,A,3,04,16,21,26,27,,,,,,,,2.6,2.4,1.0*30",2604,2017-04-26 19:39:55:802
-1.7729,5.6064,7.7257,,,,,,,,,,1001.0,28.62,-36.52,-22.58,250.24,-41.28,22.2,5.0,1020.4,69.009,50.36929,-4.138861,61.0,NaN,,0.0,3.0,,5 / 15,"$GPGSV,3,3,09,29,03,082,*42::$GPGGA,183932,5022.157127,N,00408.331997,W,2,05,2.4,16.0,M,47.0,M,,*6E::$GPVTG,,T,,M,0.0,N,0.0,K,D*26::$GLGSV,1,1,0,*79::$GPRMC,183932,A,5022.157127,N,00408.331997,W,0.0,,260417,4.8,W,D*30::$GPGSA,A,3,04,16,21,26,27,,,,,,,,2.6,2.4,1.0*30",2805,2017-04-26 19:39:56:003
0.2871,8.3165,8.8188,,,,,,,,,,631.0,30.49,-32.61,-28.66,253.49,-35.27,12.92,5.0,1020.39,69.009,50.36929,-4.138861,61.0,NaN,,0.0,3.0,,5 / 15,"$GPGSV,3,3,09,29,03,082,*42::$GPGGA,183932,5022.157127,N,00408.331997,W,2,05,2.4,16.0,M,47.0,M,,*6E::$GPVTG,,T,,M,0.0,N,0.0,K,D*26::$GLGSV,1,1,0,*79::$GPRMC,183932,A,5022.157127,N,00408.331997,W,0.0,,260417,4.8,W,D*30::$GPGSA,A,3,04,16,21,26,27,,,,,,,,2.6,2.4,1.0*30",3004,2017-04-26 19:39:56:202
2.0478,4.4971,5.0849,,,,,,,,,,631.0,26.41,-31.27,-34.9,271.8,-43.31,-1.86,5.0,1020.39,71.52,50.36929,-4.138861,61.0,NaN,,0.0,3.0,,5 / 15,"$GPGSV,3,3,09,29,03,082,*42::$GPGGA,183932,5022.157127,N,00408.331997,W,2,05,2.4,16.0,M,47.0,M,,*6E::$GPVTG,,T,,M,0.0,N,0.0,K,D*26::$GLGSV,1,1,0,*79::$GPRMC,183932,A,5022.157127,N,00408.331997,W,0.0,,260417,4.8,W,D*30::$GPGSA,A,3,04,16,21,26,27,,,,,,,,2.6,2.4,1.0*30",3204,2017-04-26 19:39:56:402
1.4987,8.0462,4.6047,,,,,,,,,,20.0,19.29,-37.82,-35.12,246.59,-39.36,-21.94,0.0,1020.43,71.52,50.36929,-4.138861,61.0,NaN,,0.0,3.0,,7 / 16,"$GPGSV,3,3,10,20,20,047,,29,03,082,*79::$GPGGA,183933,5022.157019,N,00408.332048,W,2,06,1.4,16.0,M,47.0,M,,*6B::$GPVTG,,T,,M,0.0,N,0.0,K,D*26::$GLGSV,1,1,0,*79::$GPRMC,183933,A,5022.157019,N,00408.332048,W,0.0,,260417,4.8,W,D*35::$GPGSA,A,3,04,16,18,21,26,27,,,,,,,1.7,1.4,0.9*30",3404,2017-04-26 19:39:56:602
0.4978,7.057,8.8523,,,,,,,,,,20.0,11.59,-50.96,-34.33,215.91,-38.52,-3.22,0.0,1020.42,73.056,50.36929,-4.138861,61.0,NaN,,0.0,3.0,,7 / 16,"$GPGSV,3,3,10,20,20,047,,29,03,082,*79::$GPGGA,183933,5022.157019,N,00408.332048,W,2,06,1.4,16.0,M,47.0,M,,*6B::$GPVTG,,T,,M,0.0,N,0.0,K,D*26::$GLGSV,1,1,0,*79::$GPRMC,183933,A,5022.157019,N,00408.332048,W,0.0,,260417,4.8,W,D*35::$GPGSA,A,3,04,16,18,21,26,27,,,,,,,1.7,1.4,0.9*30",3604,2017-04-26 19:39:56:802
0.8609,9.7108,1.6992,,,,,,,,,,49.0,8.33,-57.95,-33.91,303.77,-78.9,-26.87,0.0,1020.42,68.292,50.36929,-4.138861,61.0,NaN,,0.0,3.0,,7 / 16,"$GPGSV,3,3,10,20,20,047,,29,03,082,*79::$GPGGA,183933,5022.157019,N,00408.332048,W,2,06,1.4,16.0,M,47.0,M,,*6B::$GPVTG,,T,,M,0.0,N,0.0,K,D*26::$GLGSV,1,1,0,*79::$GPRMC,183933,A,5022.157019,N,00408.332048,W,0.0,,260417,4.8,W,D*35::$GPGSA,A,3,04,16,18,21,26,27,,,,,,,1.7,1.4,0.9*30",3804,2017-04-26 19:39:57:002
-1.8169,8.3633,2.6659,,,,,,,,,,85.0,6.66,-60.89,-31.93,273.41,-70.22,-32.11,0.0,1020.43,68.292,50.36929,-4.138861,61.0,NaN,,0.0,3.0,,7 / 16,"$GPGSV,3,3,10,20,20,047,,29,03,082,*79::$GPGGA,183933,5022.157019,N,00408.332048,W,2,06,1.4,16.0,M,47.0,M,,*6B::$GPVTG,,T,,M,0.0,N,0.0,K,D*26::$GLGSV,1,1,0,*79::$GPRMC,183933,A,5022.157019,N,00408.332048,W,0.0,,260417,4.8,W,D*35::$GPGSA,A,3,04,16,18,21,26,27,,,,,,,1.7,1.4,0.9*30",4005,2017-04-26 19:39:57:203
4.9959,9.0397,5.4884,,,,,,,,,,85.0,6.51,-60.16,-33.51,58.17,-68.91,34.28,0.0,1020.43,73.527,50.36929,-4.138861,61.0,NaN,,0.0,3.0,,7 / 16,"$GPGSV,3,3,10,20,20,047,,29,03,082,*79::$GPGGA,183933,5022.157019,N,00408.332048,W,2,06,1.4,16.0,M,47.0,M,,*6B::$GPVTG,,T,,M,0.0,N,0.0,K,D*26::$GLGSV,1,1,0,*79::$GPRMC,183933,A,5022.157019,N,00408.332048,W,0.0,,260417,4.8,W,D*35::$GPGSA,A,3,04,16,18,21,26,27,,,,,,,1.7,1.4,0.9*30",4204,2017-04-26 19:39:57:402
-1.3898,7.7361,1.276,,,,,,,,,,44.0,5.06,-60.02,-37.98,237.08,-50.61,-42.31,0.0,1020.4,71.818,50.36929,-4.138861,61.0,NaN,,0.0,3.0,,11 / 26,"$GPGSV,3,3,10,20,20,047,,29,03,082,*79::$GPGGA,183934,5022.156898,N,00408.332100,W,2,07,1.7,16.0,M,47.0,M,,*63::$GPVTG,,T,,M,0.0,N,0.0,K,D*26::$GLGSV,3,3,10,67,12,014,,68,22,067,*6C::$GPRMC,183934,A,5022.156898,N,00408.332100,W,0.0,,260417,4.8,W,D*3F::$GPGSA,A,3,04,10,16,18,21,26,27,,,,,,1.9,1.7,0.9*3C",4404,2017-04-26 19:39:57:602
-1.3898,7.7361,1.276,,,,,,,,,,44.0,3.39,-59.9,-42.57,61.37,-76.29,47.44,0.0,1020.42,71.818,50.36929,-4.138861,61.0,NaN,,0.0,3.0,,11 / 26,"$GPGSV,3,3,10,20,20,047,,29,03,082,*79::$GPGGA,183934,5022.156898,N,00408.332100,W,2,07,1.7,16.0,M,47.0,M,,*63::$GPVTG,,T,,M,0.0,N,0.0,K,D*26::$GLGSV,3,3,10,67,12,014,,68,22,067,*6C::$GPRMC,183934,A,5022.156898,N,00408.332100,W,0.0,,260417,4.8,W,D*3F::$GPGSA,A,3,04,10,16,18,21,26,27,,,,,,1.9,1.7,0.9*3C",4603,2017-04-26 19:39:57:801
3.8403,7.4959,6.7554,,,,,,,,,,120.0,5.27,-55.8,-46.05,242.24,-43.97,-29.62,0.0,1020.42,74.593,50.36929,-4.138861,61.0,NaN,,0.0,3.0,,11 / 26,"$GPGSV,3,3,10,20,20,047,,29,03,082,*79::$GPGGA,183934,5022.156898,N,00408.332100,W,2,07,1.7,16.0,M,47.0,M,,*63::$GPVTG,,T,,M,0.0,N,0.0,K,D*26::$GLGSV,3,3,10,67,12,014,,68,22,067,*6C::$GPRMC,183934,A,5022.156898,N,00408.332100,W,0.0,,260417,4.8,W,D*3F::$GPGSA,A,3,04,10,16,18,21,26,27,,,,,,1.9,1.7,0.9*3C",4804,2017-04-26 19:39:58:002
-1.4882,9.307,5.373,,,,,,,,,,266.0,3.72,-49.44,-48.32,30.16,-59.08,15.48,0.0,1020.43,74.593,50.36929,-4.138861,61.0,NaN,,0.0,3.0,,11 / 26,"$GPGSV,3,3,10,20,20,047,,29,03,082,*79::$GPGGA,183934,5022.156898,N,00408.332100,W,2,07,1.7,16.0,M,47.0,M,,*63::$GPVTG,,T,,M,0.0,N,0.0,K,D*26::$GLGSV,3,3,10,67,12,014,,68,22,067,*6C::$GPRMC,183934,A,5022.156898,N,00408.332100,W,0.0,,260417,4.8,W,D*3F::$GPGSA,A,3,04,10,16,18,21,26,27,,,,,,1.9,1.7,0.9*3C",5004,2017-04-26 19:39:58:202
1.9443,6.9045,6.065,,,,,,,,,,266.0,3.72,-49.44,-48.32,30.16,-59.08,15.48,0.0,1020.43,72.63,50.369274,-4.138875,63.0,NaN,,0.0,4.0,,11 / 26,"$GPGSV,3,3,10,20,20,047,,29,03,082,*79::$GPGGA,183934,5022.156898,N,00408.332100,W,2,07,1.7,16.0,M,47.0,M,,*63::$GPVTG,,T,,M,0.0,N,0.0,K,D*26::$GLGSV,3,3,10,67,12,014,,68,22,067,*6C::$GPRMC,183934,A,5022.156898,N,00408.332100,W,0.0,,260417,4.8,W,D*3F::$GPGSA,A,3,04,10,16,18,21,26,27,,,,,,1.9,1.7,0.9*3C",5203,2017-04-26 19:39:58:401
4.4616,8.3025,5.1383,,,,,,,,,,196.0,-0.26,-45.52,-47.38,276.79,-47.31,-17.77,0.0,1020.41,71.487,50.369274,-4.138875,63.0,NaN,,0.0,4.0,,15 / 27,"$GPGSV,3,3,11,27,52,278,35,29,03,082,19,07,14,323,*4A::$GPGGA,183935,5022.156517,N,00408.332522,W,2,10,1.0,16.0,M,47.0,M,,*6D::$GPVTG,,T,,M,0.0,N,0.0,K,D*26::$GLGSV,3,3,10,83,23,056,,67,12,014,*6A::$GPRMC,183935,A,5022.156517,N,00408.332522,W,0.0,,260417,4.8,W,D*30::$GPGSA,A,3,04,08,10,16,18,20,21,26,27,29,,,1.4,1.0,0.9*37",5403,2017-04-26 19:39:58:601
-2.8371,7.4636,1.2514,,,,,,,,,,196.0,-2.51,-46.04,-46.96,292.13,-58.86,-36.03,0.0,1020.42,71.487,50.369274,-4.138875,63.0,NaN,,0.0,4.0,,15 / 27,"$GPGSV,3,3,11,27,52,278,35,29,03,082,19,07,14,323,*4A::$GPGGA,183935,5022.156517,N,00408.332522,W,2,10,1.0,16.0,M,47.0,M,,*6D::$GPVTG,,T,,M,0.0,N,0.0,K,D*26::$GLGSV,3,3,10,83,23,056,,67,12,014,*6A::$GPRMC,183935,A,5022.156517,N,00408.332522,W,0.0,,260417,4.8,W,D*30::$GPGSA,A,3,04,08,10,16,18,20,21,26,27,29,,,1.4,1.0,0.9*37",5604,2017-04-26 19:39:58:802
1.8156,7.0583,6.3155,,,,,,,,,,156.0,0.19,-46.59,-46.43,91.21,-67.44,66.2,0.0,1020.42,71.019,50.369274,-4.138875,63.0,NaN,,0.0,4.0,,15 / 27,"$GPGSV,3,3,11,27,52,278,35,29,03,082,19,07,14,323,*4A::$GPGGA,183935,5022.156517,N,00408.332522,W,2,10,1.0,16.0,M,47.0,M,,*6D::$GPVTG,,T,,M,0.0,N,0.0,K,D*26::$GLGSV,3,3,10,83,23,056,,67,12,014,*6A::$GPRMC,183935,A,5022.156517,N,00408.332522,W,0.0,,260417,4.8,W,D*30::$GPGSA,A,3,04,08,10,16,18,20,21,26,27,29,,,1.4,1.0,0.9*37",5804,2017-04-26 19:39:59:002
1.8156,7.0583,6.3155,,,,,,,,,,160.0,1.74,-46.95,-46.6,272.42,-47.05,-16.04,0.0,1020.42,71.019,50.369274,-4.138875,63.0,NaN,,0.0,4.0,,15 / 27,"$GPGSV,3,3,11,27,52,278,35,29,03,082,19,07,14,323,*4A::$GPGGA,183935,5022.156517,N,00408.332522,W,2,10,1.0,16.0,M,47.0,M,,*6D::$GPVTG,,T,,M,0.0,N,0.0,K,D*26::$GLGSV,3,3,10,83,23,056,,67,12,014,*6A::$GPRMC,183935,A,5022.156517,N,00408.332522,W,0.0,,260417,4.8,W,D*30::$GPGSA,A,3,04,08,10,16,18,20,21,26,27,29,,,1.4,1.0,0.9*37",6004,2017-04-26 19:39:59:202
5.1641,6.3741,5.6961,,,,,,,,,,160.0,2.42,-45.92,-48.78,249.15,-39.66,-42.2,0.0,1020.42,63.779,50.369274,-4.138875,63.0,NaN,,0.0,4.0,,15 / 27,"$GPGSV,3,3,11,27,52,278,35,29,03,082,19,07,14,323,*4A::$GPGGA,183935,5022.156517,N,00408.332522,W,2,10,1.0,16.0,M,47.0,M,,*6D::$GPVTG,,T,,M,0.0,N,0.0,K,D*26::$GLGSV,3,3,10,83,23,056,,67,12,014,*6A::$GPRMC,183935,A,5022.156517,N,00408.332522,W,0.0,,260417,4.8,W,D*30::$GPGSA,A,3,04,08,10,16,18,20,21,26,27,29,,,1.4,1.0,0.9*37",6203,2017-04-26 19:39:59:401
7.5144,8.7714,5.6926,,,,,,,,,,144.0,3.69,-44.01,-50.59,252.71,-42.94,-52.85,0.0,1020.4,66.83,50.369274,-4.138875,63.0,NaN,,0.0,4.0,,13 / 25,"$GPGSV,3,3,09,29,03,082,19*4A::$GPGGA,183936,5022.156516,N,00408.332518,W,2,09,1.6,16.0,M,47.0,M,,*68::$GPVTG,,T,,M,0.0,N,0.0,K,D*26::$GLGSV,3,3,10,76,04,338,,83,23,056,*60::$GPRMC,183936,A,5022.156516,N,00408.332518,W,0.0,,260417,4.8,W,D*3B::$GPGSA,A,3,04,08,10,16,18,21,26,27,29,,,,1.8,1.6,0.9*3F",6404,2017-04-26 19:39:59:602
-1.6169,7.3776,5.0343,,,,,,,,,,144.0,7.22,-39.83,-52.37,26.31,-54.37,17.81,0.0,1020.4,66.83,50.369274,-4.138875,63.0,NaN,,0.0,4.0,,13 / 25,"$GPGSV,3,3,09,29,03,082,19*4A::$GPGGA,183936,5022.156516,N,00408.332518,W,2,09,1.6,16.0,M,47.0,M,,*68::$GPVTG,,T,,M,0.0,N,0.0,K,D*26::$GLGSV,3,3,10,76,04,338,,83,23,056,*60::$GPRMC,183936,A,5022.156516,N,00408.332518,W,0.0,,260417,4.8,W,D*3B::$GPGSA,A,3,04,08,10,16,18,21,26,27,29,,,,1.8,1.6,0.9*3F",6604,2017-04-26 19:39:59:802
-3.2431,7.5904,3.4832,,,,,,,,,,320.0,8.94,-34.91,-54.95,56.17,-57.91,42.96,0.0,1020.4,65.582,50.369274,-4.138875,63.0,NaN,,0.0,4.0,,13 / 25,"$GPGSV,3,3,09,29,03,082,19*4A::$GPGGA,183936,5022.156516,N,00408.332518,W,2,09,1.6,16.0,M,47.0,M,,*68::$GPVTG,,T,,M,0.0,N,0.0,K,D*26::$GLGSV,3,3,10,76,04,338,,83,23,056,*60::$GPRMC,183936,A,5022.156516,N,00408.332518,W,0.0,,260417,4.8,W,D*3B::$GPGSA,A,3,04,08,10,16,18,21,26,27,29,,,,1.8,1.6,0.9*3F",6804,2017-04-26 19:40:00:002
-2.6898,9.4052,6.6901,,,,,,,,,,323.0,10.32,-30.28,-57.71,24.27,-52.52,21.9,0.0,1020.39,65.582,50.369274,-4.138875,63.0,NaN,,0.0,4.0,,13 / 25,"$GPGSV,3,3,09,29,03,082,19*4A::$GPGGA,183936,5022.156516,N,00408.332518,W,2,09,1.6,16.0,M,47.0,M,,*68::$GPVTG,,T,,M,0.0,N,0.0,K,D*26::$GLGSV,3,3,10,76,04,338,,83,23,056,*60::$GPRMC,183936,A,5022.156516,N,00408.332518,W,0.0,,260417,4.8,W,D*3B::$GPGSA,A,3,04,08,10,16,18,21,26,27,29,,,,1.8,1.6,0.9*3F",7004,2017-04-26 19:40:00:202
-0.3473,5.6493,10.2026,,,,,,,,,,323.0,9.5,-27.22,-59.71,305.03,-28.96,1.95,0.0,1020.39,69.939,50.369274,-4.138895,61.0,NaN,,4.97,4.0,316.7,13 / 25,"$GPGSV,3,3,09,29,03,082,19*4A::$GPGGA,183936,5022.156516,N,00408.332518,W,2,09,1.6,16.0,M,47.0,M,,*68::$GPVTG,,T,,M,0.0,N,0.0,K,D*26::$GLGSV,3,3,10,76,04,338,,83,23,056,*60::$GPRMC,183936,A,5022.156516,N,00408.332518,W,0.0,,260417,4.8,W,D*3B::$GPGSA,A,3,04,08,10,16,18,21,26,27,29,,,,1.8,1.6,0.9*3F",7204,2017-04-26 19:40:00:402
-3.1463,5.8813,7.4951,,,,,,,,,,193.0,8.61,-27.18,-60.22,35.18,-39.1,19.65,0.0,1020.38,70.53,50.369274,-4.138895,61.0,NaN,,4.97,4.0,316.7,9 / 16,"$GPGSV,3,3,10,20,20,047,,29,03,082,*79::$GPGGA,183936,5022.156516,N,00408.332518,W,2,09,1.6,16.0,M,47.0,M,,*68::$GPVTG,,T,,M,0.0,N,0.0,K,D*26::$GLGSV,1,1,0,*79::$GPRMC,183936,A,5022.156516,N,00408.332518,W,0.0,,260417,4.8,W,D*3B::$GPGSA,A,3,04,07,10,16,18,21,26,27,,,,,1.7,1.5,0.8*36",7405,2017-04-26 19:40:00:603
-4.7798,7.0452,5.31,,,,,,,,,,193.0,7.14,-28.21,-61.4,55.31,-35.89,22.77,0.0,1020.38,70.53,50.369274,-4.138895,61.0,NaN,,4.97,4.0,316.7,9 / 16,"$GPGSV,3,3,10,20,20,047,,29,03,082,*79::$GPGGA,183937,5022.156559,N,00408.333703,W,2,08,1.5,14.0,M,47.0,M,,*6B::$GPVTG,316.7,T,316.7,M,2.7,N,5.0,K,D*26::$GLGSV,1,1,0,*79::$GPRMC,183937,A,5022.156559,N,00408.333703,W,2.7,316.7,260417,4.8,W,D*10::$GPGSA,A,3,04,07,10,16,18,21,26,27,,,,,1.7,1.5,0.8*36",7604,2017-04-26 19:40:00:802
2.0045,5.8943,11.2272,,,,,,,,,,166.0,5.65,-28.85,-62.49,68.58,-44.6,41.99,0.0,1020.38,71.876,50.369274,-4.138895,61.0,NaN,,4.97,4.0,316.7,9 / 16,"$GPGSV,3,3,10,20,20,047,,29,03,082,*79::$GPGGA,183937,5022.156559,N,00408.333703,W,2,08,1.5,14.0,M,47.0,M,,*6B::$GPVTG,316.7,T,316.7,M,2.7,N,5.0,K,D*26::$GLGSV,1,1,0,*79::$GPRMC,183937,A,5022.156559,N,00408.333703,W,2.7,316.7,260417,4.8,W,D*10::$GPGSA,A,3,04,07,10,16,18,21,26,27,,,,,1.7,1.5,0.8*36",7804,2017-04-26 19:40:01:002
-0.8754,8.2431,3.4397,,,,,,,,,,166.0,5.65,-28.85,-62.49,68.58,-44.6,41.99,0.0,1020.41,71.096,50.369274,-4.138895,61.0,NaN,,4.97,4.0,316.7,9 / 16,"$GPGSV,3,3,10,20,20,047,,29,03,082,*79::$GPGGA,183937,5022.156559,N,00408.333703,W,2,08,1.5,14.0,M,47.0,M,,*6B::$GPVTG,316.7,T,316.7,M,2.7,N,5.0,K,D*26::$GLGSV,1,1,0,*79::$GPRMC,183937,A,5022.156559,N,00408.333703,W,2.7,316.7,260417,4.8,W,D*10::$GPGSA,A,3,04,07,10,16,18,21,26,27,,,,,1.7,1.5,0.8*36",8004,2017-04-26 19:40:01:202
-3.8703,7.0425,3.6555,,,,,,,,,,182.0,3.14,-27.26,-64.37,15.33,-66.7,14.28,0.0,1020.41,71.096,50.369274,-4.138895,61.0,NaN,,4.97,4.0,316.7,9 / 16,"$GPGSV,3,3,10,20,20,047,,29,03,082,*79::$GPGGA,183937,5022.156559,N,00408.333703,W,2,08,1.5,14.0,M,47.0,M,,*6B::$GPVTG,316.7,T,316.7,M,2.7,N,5.0,K,D*26::$GLGSV,1,1,0,*79::$GPRMC,183937,A,5022.156559,N,00408.333703,W,2.7,316.7,260417,4.8,W,D*10::$GPGSA,A,3,04,07,10,16,18,21,26,27,,,,,1.7,1.5,0.8*36",8204,2017-04-26 19:40:01:402
-3.9092,3.7813,12.5758,,,,,,,,,,111.0,-0.04,-26.47,-65.05,67.14,-52.91,46.63,0.0,1020.42,73.424,50.369274,-4.138895,61.0,NaN,,4.97,4.0,316.7,9 / 16,"$GPGSV,3,3,10,20,20,047,,29,03,082,*79::$GPGGA,183938,5022.157101,N,00408.334504,W,2,08,1.5,14.0,M,47.0,M,,*6E::$GPVTG,316.6,T,316.6,M,2.7,N,5.0,K,D*26::$GLGSV,1,1,0,*79::$GPRMC,183938,A,5022.157101,N,00408.334504,W,2.7,316.6,260417,4.8,W,D*14::$GPGSA,A,3,04,07,10,16,18,21,26,27,,,,,1.7,1.5,0.8*36",8404,2017-04-26 19:40:01:602
2.1262,6.7015,9.1535,,,,,,,,,,111.0,-3.14,-27.45,-65.49,112.25,-16.02,17.27,0.0,1020.42,73.424,50.369274,-4.138895,61.0,NaN,,4.97,4.0,316.7,9 / 16,"$GPGSV,3,3,10,20,20,047,,29,03,082,*79::$GPGGA,183938,5022.157101,N,00408.334504,W,2,08,1.5,14.0,M,47.0,M,,*6E::$GPVTG,316.6,T,316.6,M,2.7,N,5.0,K,D*26::$GLGSV,1,1,0,*79::$GPRMC,183938,A,5022.157101,N,00408.334504,W,2.7,316.6,260417,4.8,W,D*14::$GPGSA,A,3,04,07,10,16,18,21,26,27,,,,,1.7,1.5,0.8*36",8604,2017-04-26 19:40:01:802
-5.2372,6.373,5.5397,,,,,,,,,,130.0,-6.39,-29.35,-65.67,327.93,-35.49,-13.08,0.0,1020.43,69.923,50.369274,-4.138895,61.0,NaN,,4.97,4.0,316.7,9 / 16,"$GPGSV,3,3,10,20,20,047,,29,03,082,*79::$GPGGA,183938,5022.157101,N,00408.334504,W,2,08,1.5,14.0,M,47.0,M,,*6E::$GPVTG,316.6,T,316.6,M,2.7,N,5.0,K,D*26::$GLGSV,1,1,0,*79::$GPRMC,183938,A,5022.157101,N,00408.334504,W,2.7,316.6,260417,4.8,W,D*14::$GPGSA,A,3,04,07,10,16,18,21,26,27,,,,,1.7,1.5,0.8*36",8804,2017-04-26 19:40:02:002
-0.5616,6.351,12.1982,,,,,,,,,,130.0,-9.4,-32.64,-65.34,88.87,-39.89,43.39,0.0,1020.43,72.046,50.369274,-4.138895,61.0,NaN,,4.97,4.0,316.7,9 / 16,"$GPGSV,3,3,10,20,20,047,,29,03,082,*79::$GPGGA,183938,5022.157101,N,00408.334504,W,2,08,1.5,14.0,M,47.0,M,,*6E::$GPVTG,316.6,T,316.6,M,2.7,N,5.0,K,D*26::$GLGSV,1,1,0,*79::$GPRMC,183938,A,5022.157101,N,00408.334504,W,2.7,316.6,260417,4.8,W,D*14::$GPGSA,A,3,04,07,10,16,18,21,26,27,,,,,1.7,1.5,0.8*36",9004,2017-04-26 19:40:02:202
0.1681,6.8404,12.5831,,,,,,,,,,147.0,-11.28,-36.44,-63.15,102.71,-27.48,2.64,0.0,1020.43,72.046,50.369274,-4.138895,61.0,NaN,,4.97,4.0,316.7,9 / 16,"$GPGSV,3,3,10,20,20,047,,29,03,082,*79::$GPGGA,183938,5022.157101,N,00408.334504,W,2,08,1.5,14.0,M,47.0,M,,*6E::$GPVTG,316.6,T,316.6,M,2.7,N,5.0,K,D*26::$GLGSV,1,1,0,*79::$GPRMC,183938,A,5022.157101,N,00408.334504,W,2.7,316.6,260417,4.8,W,D*14::$GPGSA,A,3,04,07,10,16,18,21,26,27,,,,,1.7,1.5,0.8*36",9203,2017-04-26 19:40:02:401
-1.0194,5.714,2.1043,,,,,,,,,,204.0,-12.73,-40.84,-60.18,120.86,-28.53,-0.77,0.0,1020.41,70.952,50.369274,-4.138895,61.0,NaN,,4.97,4.0,316.7,10 / 14,"$GPGSV,3,3,09,29,03,082,22*42::$GPGGA,183939,5022.156784,N,00408.333852,W,2,09,1.6,14.0,M,47.0,M,,*6E::$GPVTG,247.5,T,247.5,M,1.7,N,3.2,K,D*21::$GLGSV,1,1,0,*79::$GPRMC,183939,A,5022.156784,N,00408.333852,W,1.7,247.5,260417,4.8,W,D*13::$GPGSA,A,3,04,08,10,16,18,21,26,27,29,,,,1.8,1.6,0.9*3F",9403,2017-04-26 19:40:02:601
-3.0107,7.1693,2.3817,,,,,,,,,,204.0,-13.52,-45.54,-56.01,57.51,-67.75,25.85,0.0,1020.41,70.952,50.369274,-4.138895,61.0,NaN,,4.97,4.0,316.7,10 / 14,"$GPGSV,3,3,09,29,03,082,22*42::$GPGGA,183939,5022.156784,N,00408.333852,W,2,09,1.6,14.0,M,47.0,M,,*6E::$GPVTG,247.5,T,247.5,M,1.7,N,3.2,K,D*21::$GLGSV,1,1,0,*79::$GPRMC,183939,A,5022.156784,N,00408.333852,W,1.7,247.5,260417,4.8,W,D*13::$GPGSA,A,3,04,08,10,16,18,21,26,27,29,,,,1.8,1.6,0.9*3F",9604,2017-04-26 19:40:02:802
-1.2595,8.3825,5.737,,,,,,,,,,91.0,-15.74,-49.2,-50.74,97.19,-61.83,51.65,0.0,1020.41,72.331,50.369274,-4.138895,61.0,NaN,,4.97,4.0,316.7,10 / 14,"$GPGSV,3,3,09,29,03,082,22*42::$GPGGA,183939,5022.156784,N,00408.333852,W,2,09,1.6,14.0,M,47.0,M,,*6E::$GPVTG,247.5,T,247.5,M,1.7,N,3.2,K,D*21::$GLGSV,1,1,0,*79::$GPRMC,183939,A,5022.156784,N,00408.333852,W,1.7,247.5,260417,4.8,W,D*13::$GPGSA,A,3,04,08,10,16,18,21,26,27,29,,,,1.8,1.6,0.9*3F",9804,2017-04-26 19:40:03:002
1.815,7.0078,9.8186,,,,,,,,,,91.0,-20.15,-49.42,-49.29,75.87,-54.98,12.38,0.0,1020.41,69.89,50.369274,-4.138895,61.0,NaN,,4.97,4.0,316.7,10 / 14,"$GPGSV,3,3,09,29,03,082,22*42::$GPGGA,183939,5022.156784,N,00408.333852,W,2,09,1.6,14.0,M,47.0,M,,*6E::$GPVTG,247.5,T,247.5,M,1.7,N,3.2,K,D*21::$GLGSV,1,1,0,*79::$GPRMC,183939,A,5022.156784,N,00408.333852,W,1.7,247.5,260417,4.8,W,D*13::$GPGSA,A,3,04,08,10,16,18,21,26,27,29,,,,1.8,1.6,0.9*3F",10004,2017-04-26 19:40:03:202
-0.1357,6.2095,9.1548,,,,,,,,,,78.0,-24.66,-47.86,-49.38,115.8,-34.15,0.85,0.0,1020.41,69.89,50.369274,-4.138895,61.0,NaN,,4.97,4.0,316.7,10 / 14,"$GPGSV,3,3,09,29,03,082,22*42::$GPGGA,183939,5022.156784,N,00408.333852,W,2,09,1.6,14.0,M,47.0,M,,*6E::$GPVTG,247.5,T,247.5,M,1.7,N,3.2,K,D*21::$GLGSV,1,1,0,*79::$GPRMC,183939,A,5022.156784,N,00408.333852,W,1.7,247.5,260417,4.8,W,D*13::$GPGSA,A,3,04,08,10,16,18,21,26,27,29,,,,1.8,1.6,0.9*3F",10205,2017-04-26 19:40:03:403
-1.8227,8.424,0.9105,,,,,,,,,,135.0,-27.56,-47.19,-50.8,102.83,-76.4,63.46,0.0,1020.44,73.625,50.369274,-4.138895,61.0,NaN,,4.97,4.0,316.7,9 / 16,"$GPGSV,3,3,10,07,14,323,,20,20,047,*7B::$GPGGA,183940,5022.156229,N,00408.332961,W,2,08,2.0,14.0,M,47.0,M,,*66::$GPVTG,97.1,T,97.1,M,2.1,N,3.9,K,D*2F::$GLGSV,1,1,0,*79::$GPRMC,183940,A,5022.156229,N,00408.332961,W,2.1,97.1,260417,4.8,W,D*21::$GPGSA,A,3,04,08,16,18,21,26,27,29,,,,,2.2,2.0,0.9*32",10404,2017-04-26 19:40:03:602
-2.1272,8.0706,8.2811,,,,,,,,,,135.0,-28.65,-46.54,-51.92,96.34,-43.35,14.41,0.0,1020.44,70.432,50.369274,-4.138895,61.0,NaN,,4.97,4.0,316.7,9 / 16,"$GPGSV,3,3,10,07,14,323,,20,20,047,*7B::$GPGGA,183940,5022.156229,N,00408.332961,W,2,08,2.0,14.0,M,47.0,M,,*66::$GPVTG,97.1,T,97.1,M,2.1,N,3.9,K,D*2F::$GLGSV,1,1,0,*79::$GPRMC,183940,A,5022.156229,N,00408.332961,W,2.1,97.1,260417,4.8,W,D*21::$GPGSA,A,3,04,08,16,18,21,26,27,29,,,,,2.2,2.0,0.9*32",10604,2017-04-26 19:40:03:802
1.0214,8.6471,-1.0873,,,,,,,,,,220.0,-28.65,-46.54,-51.92,96.34,-43.35,14.41,0.0,1020.43,70.432,50.369274,-4.138895,61.0,NaN,,4.97,4.0,316.7,9 / 16,"$GPGSV,3,3,10,07,14,323,,20,20,047,*7B::$GPGGA,183940,5022.156229,N,00408.332961,W,2,08,2.0,14.0,M,47.0,M,,*66::$GPVTG,97.1,T,97.1,M,2.1,N,3.9,K,D*2F::$GLGSV,1,1,0,*79::$GPRMC,183940,A,5022.156229,N,00408.332961,W,2.1,97.1,260417,4.8,W,D*21::$GPGSA,A,3,04,08,16,18,21,26,27,29,,,,,2.2,2.0,0.9*32",10804,2017-04-26 19:40:04:002
-7.2516,4.8356,7.7956,,,,,,,,,,220.0,-28.77,-46.93,-53.68,244.91,-80.21,-136.79,0.0,1020.45,71.867,50.369274,-4.138895,61.0,NaN,,4.97,4.0,316.7,9 / 16,"$GPGSV,3,3,10,07,14,323,,20,20,047,*7B::$GPGGA,183940,5022.156229,N,00408.332961,W,2,08,2.0,14.0,M,47.0,M,,*66::$GPVTG,97.1,T,97.1,M,2.1,N,3.9,K,D*2F::$GLGSV,1,1,0,*79::$GPRMC,183940,A,5022.156229,N,00408.332961,W,2.1,97.1,260417,4.8,W,D*21::$GPGSA,A,3,04,08,16,18,21,26,27,29,,,,,2.2,2.0,0.9*32",11004,2017-04-26 19:40:04:202
-1.9491,7.0037,6.0946,,,,,,,,,,216.0,-28.03,-47.53,-53.2,122.13,-24.43,42.93,0.0,1020.45,71.867,50.369267,-4.138857,60.0,NaN,,5.87,4.0,91.2,9 / 16,"$GPGSV,3,3,10,07,14,323,,20,20,047,*7B::$GPGGA,183940,5022.156229,N,00408.332961,W,2,08,2.0,14.0,M,47.0,M,,*66::$GPVTG,97.1,T,97.1,M,2.1,N,3.9,K,D*2F::$GLGSV,1,1,0,*79::$GPRMC,183940,A,5022.156229,N,00408.332961,W,2.1,97.1,260417,4.8,W,D*21::$GPGSA,A,3,04,08,16,18,21,26,27,29,,,,,2.2,2.0,0.9*32",11204,2017-04-26 19:40:04:402
1.7089,7.8887,3.1209,,,,,,,,,,74.0,-27.35,-47.45,-52.32,91.66,-47.58,17.74,0.0,1020.44,70.602,50.369267,-4.138857,60.0,NaN,,5.87,4.0,91.2,9 / 16,"$GPGSV,3,3,10,07,14,323,,20,20,047,*7B::$GPGGA,183941,5022.156141,N,00408.331416,W,2,08,1.6,13.0,M,47.0,M,,*66::$GPVTG,91.2,T,91.2,M,3.2,N,5.9,K,D*2B::$GLGSV,1,1,0,*79::$GPRMC,183941,A,5022.156141,N,00408.331416,W,3.2,91.2,260417,4.8,W,D*24::$GPGSA,A,3,04,08,10,16,18,21,26,27,,,,,1.8,1.6,0.9*34",11404,2017-04-26 19:40:04:602
-0.4828,7.5115,-0.0574,,,,,,,,,,74.0,-27.74,-46.23,-50.47,0.94,-65.72,-28.7,0.0,1020.44,73.035,50.369267,-4.138857,60.0,NaN,,5.87,4.0,91.2,9 / 16,"$GPGSV,3,3,10,07,14,323,,20,20,047,*7B::$GPGGA,183941,5022.156141,N,00408.331416,W,2,08,1.6,13.0,M,47.0,M,,*66::$GPVTG,91.2,T,91.2,M,3.2,N,5.9,K,D*2B::$GLGSV,1,1,0,*79::$GPRMC,183941,A,5022.156141,N,00408.331416,W,3.2,91.2,260417,4.8,W,D*24::$GPGSA,A,3,04,08,10,16,18,21,26,27,,,,,1.8,1.6,0.9*34",11604,2017-04-26 19:40:04:802
0.9312,3.4111,3.3415,,,,,,,,,,73.0,-28.61,-44.81,-48.59,129.6,-86.3,96.78,0.0,1020.46,73.035,50.369267,-4.138857,60.0,NaN,,5.87,4.0,91.2,9 / 16,"$GPGSV,3,3,10,07,14,323,,20,20,047,*7B::$GPGGA,183941,5022.156141,N,00408.331416,W,2,08,1.6,13.0,M,47.0,M,,*66::$GPVTG,91.2,T,91.2,M,3.2,N,5.9,K,D*2B::$GLGSV,1,1,0,*79::$GPRMC,183941,A,5022.156141,N,00408.331416,W,3.2,91.2,260417,4.8,W,D*24::$GPGSA,A,3,04,08,10,16,18,21,26,27,,,,,1.8,1.6,0.9*34",11804,2017-04-26 19:40:05:002
0.6283,3.336,12.3058,,,,,,,,,,73.0,-30.22,-43.14,-48.25,65.18,-44.52,-15.57,0.0,1020.42,72.283,50.369267,-4.138857,60.0,NaN,,5.87,4.0,91.2,9 / 16,"$GPGSV,3,3,10,07,14,323,,20,20,047,*7B::$GPGGA,183941,5022.156141,N,00408.331416,W,2,08,1.6,13.0,M,47.0,M,,*66::$GPVTG,91.2,T,91.2,M,3.2,N,5.9,K,D*2B::$GLGSV,1,1,0,*79::$GPRMC,183941,A,5022.156141,N,00408.331416,W,3.2,91.2,260417,4.8,W,D*24::$GPGSA,A,3,04,08,10,16,18,21,26,27,,,,,1.8,1.6,0.9*34",12004,2017-04-26 19:40:05:202
1.8183,4.9784,-0.5007,,,,,,,,,,116.0,-31.34,-41.18,-48.81,132.82,-15.15,-2.92,0.0,1020.42,72.283,50.369267,-4.138857,60.0,NaN,,5.87,4.0,91.2,9 / 16,"$GPGSV,3,3,10,07,14,323,,20,20,047,*7B::$GPGGA,183941,5022.156141,N,00408.331416,W,2,08,1.6,13.0,M,47.0,M,,*66::$GPVTG,91.2,T,91.2,M,3.2,N,5.9,K,D*2B::$GLGSV,1,1,0,*79::$GPRMC,183941,A,5022.156141,N,00408.331416,W,3.2,91.2,260417,4.8,W,D*24::$GPGSA,A,3,04,08,10,16,18,21,26,27,,,,,1.8,1.6,0.9*34",12205,2017-04-26 19:40:05:403
2.3851,7.2471,3.2483,,,,,,,,,,116.0,-30.21,-40.7,-49.99,270.11,-69.25,-105.4,0.0,1020.33,72.731,50.369267,-4.138857,60.0,NaN,,5.87,4.0,91.2,9 / 17,"$GPGSV,3,3,11,07,14,323,,20,20,047,,29,03,082,*48::$GPGGA,183942,5022.155626,N,00408.329097,W,2,08,1.6,14.0,M,47.0,M,,*63::$GPVTG,97.7,T,97.7,M,5.5,N,10.2,K,D*15::$GLGSV,1,1,0,*79::$GPRMC,183942,A,5022.155626,N,00408.329097,W,5.5,97.7,260417,4.8,W,D*24::$GPGSA,A,3,04,08,10,16,18,21,26,27,,,,,1.8,1.6,0.9*34",12404,2017-04-26 19:40:05:602
-3.7712,2.8412,0.3681,,,,,,,,,,207.0,-27.31,-42.08,-52.03,130.65,-36.86,84.43,0.0,1020.33,71.431,50.369267,-4.138857,60.0,NaN,,5.87,4.0,91.2,9 / 17,"$GPGSV,3,3,11,07,14,323,,20,20,047,,29,03,082,*48::$GPGGA,183942,5022.155626,N,00408.329097,W,2,08,1.6,14.0,M,47.0,M,,*63::$GPVTG,97.7,T,97.7,M,5.5,N,10.2,K,D*15::$GLGSV,1,1,0,*79::$GPRMC,183942,A,5022.155626,N,00408.329097,W,5.5,97.7,260417,4.8,W,D*24::$GPGSA,A,3,04,08,10,16,18,21,26,27,,,,,1.8,1.6,0.9*34",12604,2017-04-26 19:40:05:802
1.0626,4.6093,7.2323,,,,,,,,,,82.0,-26.8,-42.14,-53.32,106.04,-32.23,-8.36,0.0,1020.44,71.431,50.369267,-4.138857,60.0,NaN,,5.87,4.0,91.2,9 / 17,"$GPGSV,3,3,11,07,14,323,,20,20,047,,29,03,082,*48::$GPGGA,183942,5022.155626,N,00408.329097,W,2,08,1.6,14.0,M,47.0,M,,*63::$GPVTG,97.7,T,97.7,M,5.5,N,10.2,K,D*15::$GLGSV,1,1,0,*79::$GPRMC,183942,A,5022.155626,N,00408.329097,W,5.5,97.7,260417,4.8,W,D*24::$GPGSA,A,3,04,08,10,16,18,21,26,27,,,,,1.8,1.6,0.9*34",12803,2017-04-26 19:40:06:001
3.1284,3.881,9.8311,,,,,,,,,,82.0,-27.34,-42.38,-53.69,152.94,-20.62,-17.65,0.0,1020.45,70.21,50.369267,-4.138857,60.0,NaN,,5.87,4.0,91.2,9 / 17,"$GPGSV,3,3,11,07,14,323,,20,20,047,,29,03,082,*48::$GPGGA,183942,5022.155626,N,00408.329097,W,2,08,1.6,14.0,M,47.0,M,,*63::$GPVTG,97.7,T,97.7,M,5.5,N,10.2,K,D*15::$GLGSV,1,1,0,*79::$GPRMC,183942,A,5022.155626,N,00408.329097,W,5.5,97.7,260417,4.8,W,D*24::$GPGSA,A,3,04,08,10,16,18,21,26,27,,,,,1.8,1.6,0.9*34",13004,2017-04-26 19:40:06:202
0.6018,6.8932,9.9151,,,,,,,,,,82.0,-28.23,-43.86,-52.42,102.7,-34.76,-3.47,0.0,1020.45,73.099,50.36926,-4.13876,62.0,NaN,,13.57,4.0,95.3,9 / 17,"$GPGSV,3,3,11,07,14,323,,20,20,047,,29,03,082,*48::$GPGGA,183942,5022.155626,N,00408.329097,W,2,08,1.6,14.0,M,47.0,M,,*63::$GPVTG,97.7,T,97.7,M,5.5,N,10.2,K,D*15::$GLGSV,1,1,0,*79::$GPRMC,183942,A,5022.155626,N,00408.329097,W,5.5,97.7,260417,4.8,W,D*24::$GPGSA,A,3,04,08,10,16,18,21,26,27,,,,,1.8,1.6,0.9*34",13204,2017-04-26 19:40:06:402
3.1699,6.0611,17.5363,,,,,,,,,,82.0,-28.23,-43.86,-52.42,102.7,-34.76,-3.47,0.0,1020.46,73.099,50.36926,-4.13876,62.0,NaN,,13.57,4.0,95.3,9 / 16,"$GPGSV,3,3,10,07,14,323,,20,20,047,*7B::$GPGGA,183942,5022.155626,N,00408.329097,W,2,08,1.6,14.0,M,47.0,M,,*63::$GPVTG,95.3,T,95.3,M,7.3,N,13.6,K,D*16::$GLGSV,1,1,0,*79::$GPRMC,183942,A,5022.155626,N,00408.329097,W,5.5,97.7,260417,4.8,W,D*24::$GPGSA,A,3,04,08,16,18,21,26,27,29,,,,,2.2,2.0,0.9*32",13403,2017-04-26 19:40:06:601
-2.0368,2.302,-0.4768,,,,,,,,,,89.0,-30.38,-45.67,-49.89,141.56,-18.78,-10.25,0.0,1020.46,73.059,50.36926,-4.13876,62.0,NaN,,13.57,4.0,95.3,9 / 16,"$GPGSV,3,3,10,07,14,323,,20,20,047,*7B::$GPGGA,183943,5022.155546,N,00408.325620,W,2,08,2.0,15.0,M,47.0,M,,*65::$GPVTG,95.3,T,95.3,M,7.3,N,13.6,K,D*16::$GLGSV,1,1,0,*79::$GPRMC,183943,A,5022.155546,N,00408.325620,W,7.3,95.3,260417,4.8,W,D*24::$GPGSA,A,3,04,08,16,18,21,26,27,29,,,,,2.2,2.0,0.9*32",13604,2017-04-26 19:40:06:802
0.882,6.7237,2.8184,,,,,,,,,,298.0,-32.27,-44.02,-50.51,145.33,-47.74,103.17,0.0,1020.44,73.059,50.36926,-4.13876,62.0,NaN,,13.57,4.0,95.3,9 / 16,"$GPGSV,3,3,10,07,14,323,,20,20,047,*7B::$GPGGA,183943,5022.155546,N,00408.325620,W,2,08,2.0,15.0,M,47.0,M,,*65::$GPVTG,95.3,T,95.3,M,7.3,N,13.6,K,D*16::$GLGSV,1,1,0,*79::$GPRMC,183943,A,5022.155546,N,00408.325620,W,7.3,95.3,260417,4.8,W,D*24::$GPGSA,A,3,04,08,16,18,21,26,27,29,,,,,2.2,2.0,0.9*32",13804,2017-04-26 19:40:07:002
-6.2966,7.3189,5.0183,,,,,,,,,,298.0,-32.04,-42.09,-53.02,21.07,-66.29,-17.38,0.0,1020.48,71.682,50.36926,-4.13876,62.0,NaN,,13.57,4.0,95.3,9 / 16,"$GPGSV,3,3,10,07,14,323,,20,20,047,*7B::$GPGGA,183943,5022.155546,N,00408.325620,W,2,08,2.0,15.0,M,47.0,M,,*65::$GPVTG,95.3,T,95.3,M,7.3,N,13.6,K,D*16::$GLGSV,1,1,0,*79::$GPRMC,183943,A,5022.155546,N,00408.325620,W,7.3,95.3,260417,4.8,W,D*24::$GPGSA,A,3,04,08,16,18,21,26,27,29,,,,,2.2,2.0,0.9*32",14004,2017-04-26 19:40:07:202
1.3904,6.1524,4.8858,,,,,,,,,,82.0,-29.53,-41.7,-55.2,111.09,-42.27,51.45,0.0,1020.48,73.062,50.36926,-4.13876,62.0,NaN,,13.57,4.0,95.3,9 / 16,"$GPGSV,3,3,10,07,14,323,,20,20,047,*7B::$GPGGA,183943,5022.155546,N,00408.325620,W,2,08,2.0,15.0,M,47.0,M,,*65::$GPVTG,95.3,T,95.3,M,7.3,N,13.6,K,D*16::$GLGSV,1,1,0,*79::$GPRMC,183943,A,5022.155546,N,00408.325620,W,7.3,95.3,260417,4.8,W,D*24::$GPGSA,A,3,04,08,16,18,21,26,27,29,,,,,2.2,2.0,0.9*32",14204,2017-04-26 19:40:07:402
3.2508,-2.9491,3.1843,,,,,,,,,,82.0,-27.63,-43.09,-55.95,196.64,32.95,-45.59,0.0,1020.42,73.062,50.36926,-4.13876,62.0,NaN,,13.57,4.0,95.3,9 / 16,"$GPGSV,3,3,10,07,14,323,,20,20,047,*7B::$GPGGA,183944,5022.155248,N,00408.323277,W,2,08,1.6,15.0,M,47.0,M,,*6E::$GPVTG,91.1,T,91.1,M,4.5,N,8.2,K,D*2D::$GLGSV,1,1,0,*79::$GPRMC,183944,A,5022.155248,N,00408.323277,W,4.5,91.1,260417,4.8,W,D*29::$GPGSA,A,3,04,08,10,16,18,21,26,27,,,,,1.8,1.6,0.9*34",14404,2017-04-26 19:40:07:602
-0.8582,11.6535,7.3603,,,,,,,,,,90.0,-27.98,-45.17,-55.01,60.65,-57.55,6.65,0.0,1020.42,72.366,50.36926,-4.13876,62.0,NaN,,13.57,4.0,95.3,9 / 16,"$GPGSV,3,3,10,07,14,323,,20,20,047,*7B::$GPGGA,183944,5022.155248,N,00408.323277,W,2,08,1.6,15.0,M,47.0,M,,*6E::$GPVTG,91.1,T,91.1,M,4.5,N,8.2,K,D*2D::$GLGSV,1,1,0,*79::$GPRMC,183944,A,5022.155248,N,00408.323277,W,4.5,91.1,260417,4.8,W,D*29::$GPGSA,A,3,04,08,10,16,18,21,26,27,,,,,1.8,1.6,0.9*34",14604,2017-04-26 19:40:07:802
2.7599,3.7617,1.0062,,,,,,,,,,90.0,-28.69,-46.59,-53.21,64.9,-57.55,6.65,0.0,1020.49,72.366,50.36926,-4.13876,62.0,NaN,,13.57,4.0,95.3,9 / 16,"$GPGSV,3,3,10,07,14,323,,20,20,047,*7B::$GPGGA,183944,5022.155248,N,00408.323277,W,2,08,1.6,15.0,M,47.0,M,,*6E::$GPVTG,91.1,T,91.1,M,4.5,N,8.2,K,D*2D::$GLGSV,1,1,0,*79::$GPRMC,183944,A,5022.155248,N,00408.323277,W,4.5,91.1,260417,4.8,W,D*29::$GPGSA,A,3,04,08,10,16,18,21,26,27,,,,,1.8,1.6,0.9*34",14804,2017-04-26 19:40:08:002
1.0256,4.9611,-7.5083,,,,,,,,,,133.0,-28.15,-47.98,-51.99,277.58,-52.01,-69.97,0.0,1020.44,73.193,50.36926,-4.13876,62.0,NaN,,13.57,4.0,95.3,9 / 16,"$GPGSV,3,3,10,07,14,323,,20,20,047,*7B::$GPGGA,183944,5022.155248,N,00408.323277,W,2,08,1.6,15.0,M,47.0,M,,*6E::$GPVTG,91.1,T,91.1,M,4.5,N,8.2,K,D*2D::$GLGSV,1,1,0,*79::$GPRMC,183944,A,5022.155248,N,00408.323277,W,4.5,91.1,260417,4.8,W,D*29::$GPGSA,A,3,04,08,10,16,18,21,26,27,,,,,1.8,1.6,0.9*34",15004,2017-04-26 19:40:08:202
-1.7449,12.1538,6.2463,,,,,,,,,,370.0,-27.33,-47.61,-51.98,206.98,-33.21,-172.22,0.0,1020.44,71.901,50.36926,-4.138677,61.0,NaN,,8.78,4.0,90.0,9 / 16,"$GPGSV,3,3,10,07,14,323,,20,20,047,*7B::$GPGGA,183944,5022.155248,N,00408.323277,W,2,08,1.6,15.0,M,47.0,M,,*6E::$GPVTG,91.1,T,91.1,M,4.5,N,8.2,K,D*2D::$GLGSV,1,1,0,*79::$GPRMC,183944,A,5022.155248,N,00408.323277,W,4.5,91.1,260417,4.8,W,D*29::$GPGSA,A,3,04,08,10,16,18,21,26,27,,,,,1.8,1.6,0.9*34",15204,2017-04-26 19:40:08:402
-5.4802,5.8099,3.0887,,,,,,,,,,370.0,-24.68,-46.91,-52.72,118.43,-42.72,60.59,0.0,1020.44,71.901,50.36926,-4.138677,61.0,NaN,,8.78,4.0,90.0,10 / 16,"$GPGSV,3,3,11,29,03,082,22,07,14,323,,20,20,047,*48::$GPGGA,183945,5022.155560,N,00408.320649,W,2,09,1.6,14.0,M,47.0,M,,*68::$GPVTG,90.0,T,90.0,M,4.7,N,8.8,K,D*25::$GLGSV,1,1,0,*79::$GPRMC,183945,A,5022.155560,N,00408.320649,W,4.7,90.0,260417,4.8,W,D*2D::$GPGSA,A,3,04,08,10,16,18,21,26,27,29,,,,1.8,1.6,0.9*3F",15404,2017-04-26 19:40:08:602
-0.0699,6.0459,8.0561,,,,,,,,,,79.0,-25.57,-45.98,-52.73,100.94,-36.89,0.5,0.0,1020.44,71.204,50.36926,-4.138677,61.0,NaN,,8.78,4.0,90.0,10 / 16,"$GPGSV,3,3,11,29,03,082,22,07,14,323,,20,20,047,*48::$GPGGA,183945,5022.155560,N,00408.320649,W,2,09,1.6,14.0,M,47.0,M,,*68::$GPVTG,90.0,T,90.0,M,4.7,N,8.8,K,D*25::$GLGSV,1,1,0,*79::$GPRMC,183945,A,5022.155560,N,00408.320649,W,4.7,90.0,260417,4.8,W,D*2D::$GPGSA,A,3,04,08,10,16,18,21,26,27,29,,,,1.8,1.6,0.9*3F",15604,2017-04-26 19:40:08:802
0.4329,8.9271,-5.4286,,,,,,,,,,79.0,-28.21,-45.26,-52.17,205.97,-58.62,-175.44,0.0,1020.45,74.387,50.36926,-4.138677,61.0,NaN,,8.78,4.0,90.0,10 / 16,"$GPGSV,3,3,11,29,03,082,22,07,14,323,,20,20,047,*48::$GPGGA,183945,5022.155560,N,00408.320649,W,2,09,1.6,14.0,M,47.0,M,,*68::$GPVTG,90.0,T,90.0,M,4.7,N,8.8,K,D*25::$GLGSV,1,1,0,*79::$GPRMC,183945,A,5022.155560,N,00408.320649,W,4.7,90.0,260417,4.8,W,D*2D::$GPGSA,A,3,04,08,10,16,18,21,26,27,29,,,,1.8,1.6,0.9*3F",15804,2017-04-26 19:40:09:002
2.2919,6.3991,7.6939,,,,,,,,,,91.0,-30.78,-44.77,-51.18,87.0,-38.56,-16.59,0.0,1020.42,74.387,50.36926,-4.138677,61.0,NaN,,8.78,4.0,90.0,10 / 16,"$GPGSV,3,3,11,29,03,082,22,07,14,323,,20,20,047,*48::$GPGGA,183945,5022.155560,N,00408.320649,W,2,09,1.6,14.0,M,47.0,M,,*68::$GPVTG,90.0,T,90.0,M,4.7,N,8.8,K,D*25::$GLGSV,1,1,0,*79::$GPRMC,183945,A,5022.155560,N,00408.320649,W,4.7,90.0,260417,4.8,W,D*2D::$GPGSA,A,3,04,08,10,16,18,21,26,27,29,,,,1.8,1.6,0.9*3F",16004,2017-04-26 19:40:09:202
2.4717,4.1289,5.6628,,,,,,,,,,168.0,-30.78,-44.77,-51.18,87.0,-38.56,-16.59,0.0,1020.42,70.168,50.36926,-4.138677,61.0,NaN,,8.78,4.0,90.0,10 / 16,"$GPGSV,3,3,11,29,03,082,22,07,14,323,,20,20,047,*48::$GPGGA,183945,5022.155560,N,00408.320649,W,2,09,1.6,14.0,M,47.0,M,,*68::$GPVTG,90.0,T,90.0,M,4.7,N,8.8,K,D*25::$GLGSV,1,1,0,*79::$GPRMC,183945,A,5022.155560,N,00408.320649,W,4.7,90.0,260417,4.8,W,D*2D::$GPGSA,A,3,04,08,10,16,18,21,26,27,29,,,,1.8,1.6,0.9*3F",16204,2017-04-26 19:40:09:402
-1.4813,8.3236,-2.1021,,,,,,,,,,168.0,-31.22,-44.41,-51.58,112.9,-33.75,-23.58,0.0,1020.48,70.168,50.36926,-4.138677,61.0,NaN,,8.78,4.0,90.0,9 / 15,"$GPGSV,3,3,10,07,14,323,,20,20,047,*7B::$GPGGA,183946,5022.155917,N,00408.317966,W,2,08,2.0,14.0,M,47.0,M,,*65::$GPVTG,77.3,T,77.3,M,5.6,N,10.3,K,D*17::$GLGSV,1,1,0,*79::$GPRMC,183946,A,5022.155917,N,00408.317966,W,5.6,77.3,260417,4.8,W,D*2E::$GPGSA,A,3,04,08,16,18,21,26,27,29,,,,,2.2,2.0,0.9*32",16404,2017-04-26 19:40:09:602
-0.2046,10.1568,1.3888,,,,,,,,,,263.0,-29.32,-45.0,-52.76,174.48,-72.83,144.83,0.0,1020.48,73.108,50.36926,-4.138677,61.0,NaN,,8.78,4.0,90.0,9 / 15,"$GPGSV,3,3,10,07,14,323,,20,20,047,*7B::$GPGGA,183946,5022.155917,N,00408.317966,W,2,08,2.0,14.0,M,47.0,M,,*65::$GPVTG,77.3,T,77.3,M,5.6,N,10.3,K,D*17::$GLGSV,1,1,0,*79::$GPRMC,183946,A,5022.155917,N,00408.317966,W,5.6,77.3,260417,4.8,W,D*2E::$GPGSA,A,3,04,08,16,18,21,26,27,29,,,,,2.2,2.0,0.9*32",16604,2017-04-26 19:40:09:802
-5.2028,6.6838,6.5862,,,,,,,,,,263.0,-27.13,-44.8,-54.61,38.38,-82.13,8.38,0.0,1020.44,72.296,50.36926,-4.138677,61.0,NaN,,8.78,4.0,90.0,9 / 15,"$GPGSV,3,3,10,07,14,323,,20,20,047,*7B::$GPGGA,183946,5022.155917,N,00408.317966,W,2,08,2.0,14.0,M,47.0,M,,*65::$GPVTG,77.3,T,77.3,M,5.6,N,10.3,K,D*17::$GLGSV,1,1,0,*79::$GPRMC,183946,A,5022.155917,N,00408.317966,W,5.6,77.3,260417,4.8,W,D*2E::$GPGSA,A,3,04,08,16,18,21,26,27,29,,,,,2.2,2.0,0.9*32",16804,2017-04-26 19:40:10:002
3.1501,2.644,0.6148,,,,,,,,,,73.0,-26.54,-45.09,-55.16,108.73,-38.53,38.31,0.0,1020.44,72.296,50.36926,-4.138677,61.0,NaN,,8.78,4.0,90.0,9 / 15,"$GPGSV,3,3,10,07,14,323,,20,20,047,*7B::$GPGGA,183946,5022.155917,N,00408.317966,W,2,08,2.0,14.0,M,47.0,M,,*65::$GPVTG,77.3,T,77.3,M,5.6,N,10.3,K,D*17::$GLGSV,1,1,0,*79::$GPRMC,183946,A,5022.155917,N,00408.317966,W,5.6,77.3,260417,4.8,W,D*2E::$GPGSA,A,3,04,08,16,18,21,26,27,29,,,,,2.2,2.0,0.9*32",17004,2017-04-26 19:40:10:202
5.6195,11.5986,1.7458,,,,,,,,,,96.0,-29.27,-44.53,-53.25,293.61,-63.1,-72.74,0.0,1020.46,72.292,50.36927,-4.13856,62.0,NaN,,15.48,4.0,91.2,9 / 15,"$GPGSV,3,3,10,07,14,323,,20,20,047,*7B::$GPGGA,183946,5022.155917,N,00408.317966,W,2,08,2.0,14.0,M,47.0,M,,*65::$GPVTG,77.3,T,77.3,M,5.6,N,10.3,K,D*17::$GLGSV,1,1,0,*79::$GPRMC,183946,A,5022.155917,N,00408.317966,W,5.6,77.3,260417,4.8,W,D*2E::$GPGSA,A,3,04,08,16,18,21,26,27,29,,,,,2.2,2.0,0.9*32",17204,2017-04-26 19:40:10:402
4.9741,7.736,-2.349,,,,,,,,,,96.0,-31.82,-44.3,-52.12,251.75,-54.58,-115.28,0.0,1020.34,72.292,50.36927,-4.13856,62.0,NaN,,15.48,4.0,91.2,9 / 16,"$GPGSV,3,3,10,07,14,323,,10,13,149,*77::$GPGGA,183947,5022.156357,N,00408.313602,W,2,08,1.3,15.0,M,47.0,M,,*61::$GPVTG,91.2,T,91.2,M,8.4,N,15.5,K,D*1B::$GLGSV,1,1,0,*79::$GPRMC,183947,A,5022.156357,N,00408.313602,W,8.4,91.2,260417,4.8,W,D*2D::$GPGSA,A,3,04,08,16,18,20,21,26,27,,,,,1.5,1.3,0.8*3E",17404,2017-04-26 19:40:10:602
-3.2235,5.8414,1.048,,,,,,,,,,162.0,-30.64,-44.19,-52.35,119.7,-59.87,71.99,0.0,1020.34,72.666,50.36927,-4.13856,62.0,NaN,,15.48,4.0,91.2,9 / 16,"$GPGSV,3,3,10,07,14,323,,10,13,149,*77::$GPGGA,183947,5022.156357,N,00408.313602,W,2,08,1.3,15.0,M,47.0,M,,*61::$GPVTG,91.2,T,91.2,M,8.4,N,15.5,K,D*1B::$GLGSV,1,1,0,*79::$GPRMC,183947,A,5022.156357,N,00408.313602,W,8.4,91.2,260417,4.8,W,D*2D::$GPGSA,A,3,04,08,16,18,20,21,26,27,,,,,1.5,1.3,0.8*3E",17605,2017-04-26 19:40:10:803
-5.7449,8.9404,12.4072,,,,,,,,,,162.0,-27.63,-44.69,-52.57,110.45,-33.18,24.85,0.0,1020.46,72.908,50.36927,-4.13856,62.0,NaN,,15.48,4.0,91.2,9 / 16,"$GPGSV,3,3,10,07,14,323,,10,13,149,*77::$GPGGA,183947,5022.156357,N,00408.313602,W,2,08,1.3,15.0,M,47.0,M,,*61::$GPVTG,91.2,T,91.2,M,8.4,N,15.5,K,D*1B::$GLGSV,1,1,0,*79::$GPRMC,183947,A,5022.156357,N,00408.313602,W,8.4,91.2,260417,4.8,W,D*2D::$GPGSA,A,3,04,08,16,18,20,21,26,27,,,,,1.5,1.3,0.8*3E",17804,2017-04-26 19:40:11:002
-0.93,7.3079,12.8045,,,,,,,,,,111.0,-25.58,-43.6,-52.22,114.47,-29.65,4.15,0.0,1020.46,72.908,50.36927,-4.13856,62.0,NaN,,15.48,4.0,91.2,9 / 16,"$GPGSV,3,3,10,07,14,323,,10,13,149,*77::$GPGGA,183947,5022.156357,N,00408.313602,W,2,08,1.3,15.0,M,47.0,M,,*61::$GPVTG,91.2,T,91.2,M,8.4,N,15.5,K,D*1B::$GLGSV,1,1,0,*79::$GPRMC,183947,A,5022.156357,N,00408.313602,W,8.4,91.2,260417,4.8,W,D*2D::$GPGSA,A,3,04,08,16,18,20,21,26,27,,,,,1.5,1.3,0.8*3E",18004,2017-04-26 19:40:11:202
6.6862,7.4745,-3.7678,,,,,,,,,,111.0,-28.85,-40.88,-50.48,243.46,-44.24,-119.4,0.0,1020.43,71.892,50.36927,-4.13856,62.0,NaN,,15.48,4.0,91.2,9 / 16,"$GPGSV,3,3,10,07,14,323,,10,13,149,*77::$GPGGA,183947,5022.156357,N,00408.313602,W,2,08,1.3,15.0,M,47.0,M,,*61::$GPVTG,91.2,T,91.2,M,8.4,N,15.5,K,D*1B::$GLGSV,1,1,0,*79::$GPRMC,183947,A,5022.156357,N,00408.313602,W,8.4,91.2,260417,4.8,W,D*2D::$GPGSA,A,3,04,08,16,18,20,21,26,27,,,,,1.5,1.3,0.8*3E",18204,2017-04-26 19:40:11:402
1.4321,10.694,19.0249,,,,,,,,,,72.0,-30.84,-40.25,-49.34,109.91,-29.27,-4.3,0.0,1020.37,72.609,50.36927,-4.13856,62.0,NaN,,15.48,4.0,91.2,9 / 15,"$GPGSV,3,3,09,10,13,149,*4F::$GPGGA,183948,5022.156559,N,00408.310076,W,2,08,2.0,15.0,M,47.0,M,,*60::$GPVTG,80.4,T,80.4,M,7.8,N,14.5,K,D*19::$GLGSV,1,1,0,*79::$GPRMC,183948,A,5022.156559,N,00408.310076,W,7.8,80.4,260417,4.8,W,D*29::$GPGSA,A,3,04,08,16,18,21,26,27,29,,,,,2.2,2.0,0.9*32",18404,2017-04-26 19:40:11:602
7.7571,6.5312,-7.0881,,,,,,,,,,72.0,-31.24,-40.23,-49.09,235.43,-31.86,-132.42,0.0,1020.37,72.609,50.36927,-4.13856,62.0,NaN,,15.48,4.0,91.2,9 / 15,"$GPGSV,3,3,09,10,13,149,*4F::$GPGGA,183948,5022.156559,N,00408.310076,W,2,08,2.0,15.0,M,47.0,M,,*60::$GPVTG,80.4,T,80.4,M,7.8,N,14.5,K,D*19::$GLGSV,1,1,0,*79::$GPRMC,183948,A,5022.156559,N,00408.310076,W,7.8,80.4,260417,4.8,W,D*29::$GPGSA,A,3,04,08,16,18,21,26,27,29,,,,,2.2,2.0,0.9*32",18604,2017-04-26 19:40:11:802
5.7029,6.2424,1.6996,,,,,,,,,,97.0,-30.79,-39.09,-48.14,276.93,-46.37,-73.4,0.0,1020.43,72.814,50.36927,-4.13856,62.0,NaN,,15.48,4.0,91.2,9 / 15,"$GPGSV,3,3,09,10,13,149,*4F::$GPGGA,183948,5022.156559,N,00408.310076,W,2,08,2.0,15.0,M,47.0,M,,*60::$GPVTG,80.4,T,80.4,M,7.8,N,14.5,K,D*19::$GLGSV,1,1,0,*79::$GPRMC,183948,A,5022.156559,N,00408.310076,W,7.8,80.4,260417,4.8,W,D*29::$GPGSA,A,3,04,08,16,18,21,26,27,29,,,,,2.2,2.0,0.9*32",18804,2017-04-26 19:40:12:002
-3.2903,4.7233,-0.0258,,,,,,,,,,131.0,-30.79,-39.09,-48.14,276.93,-46.37,-73.4,0.0,1020.43,72.814,50.36927,-4.13856,62.0,NaN,,15.48,4.0,91.2,9 / 15,"$GPGSV,3,3,09,10,13,149,*4F::$GPGGA,183948,5022.156559,N,00408.310076,W,2,08,2.0,15.0,M,47.0,M,,*60::$GPVTG,80.4,T,80.4,M,7.8,N,14.5,K,D*19::$GLGSV,1,1,0,*79::$GPRMC,183948,A,5022.156559,N,00408.310076,W,7.8,80.4,260417,4.8,W,D*29::$GPGSA,A,3,04,08,16,18,21,26,27,29,,,,,2.2,2.0,0.9*32",19004,2017-04-26 19:40:12:202
-3.5241,5.477,5.0979,,,,,,,,,,131.0,-29.64,-36.08,-48.35,133.61,-55.14,90.45,0.0,1020.41,71.254,50.36928,-4.138435,63.0,NaN,,14.94,6.0,81.1,9 / 15,"$GPGSV,3,3,09,10,13,149,*4F::$GPGGA,183948,5022.156559,N,00408.310076,W,2,08,2.0,15.0,M,47.0,M,,*60::$GPVTG,80.4,T,80.4,M,7.8,N,14.5,K,D*19::$GLGSV,1,1,0,*79::$GPRMC,183948,A,5022.156559,N,00408.310076,W,7.8,80.4,260417,4.8,W,D*29::$GPGSA,A,3,04,08,16,18,21,26,27,29,,,,,2.2,2.0,0.9*32",19204,2017-04-26 19:40:12:402
-1.096,9.0898,8.41,,,,,,,,,,136.0,-28.97,-34.47,-48.85,100.63,-41.47,34.66,0.0,1020.41,72.856,50.36928,-4.138435,63.0,NaN,,14.94,6.0,81.1,9 / 16,"$GPGSV,3,3,10,07,14,323,,10,13,149,*77::$GPGGA,183949,5022.156795,N,00408.306104,W,2,08,1.3,16.0,M,47.0,M,,*63::$GPVTG,81.1,T,81.1,M,8.1,N,14.9,K,D*13::$GLGSV,1,1,0,*79::$GPRMC,183949,A,5022.156795,N,00408.306104,W,8.1,81.1,260417,4.8,W,D*2B::$GPGSA,A,3,04,08,16,18,21,26,27,29,,,,,1.5,1.3,0.9*36",19404,2017-04-26 19:40:12:602
-0.2481,7.0685,15.8405,,,,,,,,,,136.0,-29.17,-34.32,-50.5,73.67,-46.98,7.42,0.0,1020.41,72.856,50.36928,-4.138435,63.0,NaN,,14.94,6.0,81.1,9 / 16,"$GPGSV,3,3,10,07,14,323,,10,13,149,*77::$GPGGA,183949,5022.156795,N,00408.306104,W,2,08,1.3,16.0,M,47.0,M,,*63::$GPVTG,81.1,T,81.1,M,8.1,N,14.9,K,D*13::$GLGSV,1,1,0,*79::$GPRMC,183949,A,5022.156795,N,00408.306104,W,8.1,81.1,260417,4.8,W,D*2B::$GPGSA,A,3,04,08,16,18,21,26,27,29,,,,,1.5,1.3,0.9*36",19604,2017-04-26 19:40:12:802
2.9707,3.3793,6.083,,,,,,,,,,144.0,-29.31,-34.95,-51.57,110.19,-24.05,0.9,0.0,1020.34,72.518,50.36928,-4.138435,63.0,NaN,,14.94,6.0,81.1,9 / 16,"$GPGSV,3,3,10,07,14,323,,10,13,149,*77::$GPGGA,183949,5022.156795,N,00408.306104,W,2,08,1.3,16.0,M,47.0,M,,*63::$GPVTG,81.1,T,81.1,M,8.1,N,14.9,K,D*13::$GLGSV,1,1,0,*79::$GPRMC,183949,A,5022.156795,N,00408.306104,W,8.1,81.1,260417,4.8,W,D*2B::$GPGSA,A,3,04,08,16,18,21,26,27,29,,,,,1.5,1.3,0.9*36",19804,2017-04-26 19:40:13:002
4.43,10.0151,2.2677,,,,,,,,,,116.0,-28.99,-36.46,-51.62,310.57,-63.58,-62.89,0.0,1020.34,72.518,50.36928,-4.138435,63.0,NaN,,14.94,6.0,81.1,9 / 16,"$GPGSV,3,3,10,07,14,323,,10,13,149,*77::$GPGGA,183949,5022.156795,N,00408.306104,W,2,08,1.3,16.0,M,47.0,M,,*63::$GPVTG,81.1,T,81.1,M,8.1,N,14.9,K,D*13::$GLGSV,1,1,0,*79::$GPRMC,183949,A,5022.156795,N,00408.306104,W,8.1,81.1,260417,4.8,W,D*2B::$GPGSA,A,3,04,08,16,18,21,26,27,29,,,,,1.5,1.3,0.9*36",20004,2017-04-26 19:40:13:202
-2.1354,8.5156,3.7019,,,,,,,,,,116.0,-27.69,-37.27,-50.87,78.21,-63.35,29.98,0.0,1020.44,74.508,50.36928,-4.138435,63.0,NaN,,14.94,6.0,81.1,9 / 16,"$GPGSV,3,3,10,07,14,323,,10,13,149,*77::$GPGGA,183949,5022.156795,N,00408.306104,W,2,08,1.3,16.0,M,47.0,M,,*63::$GPVTG,81.1,T,81.1,M,8.1,N,14.9,K,D*13::$GLGSV,1,1,0,*79::$GPRMC,183949,A,5022.156795,N,00408.306104,W,8.1,81.1,260417,4.8,W,D*2B::$GPGSA,A,3,04,08,16,18,21,26,27,29,,,,,1.5,1.3,0.9*36",20204,2017-04-26 19:40:13:402
-0.9654,8.7649,-1.3112,,,,,,,,,,138.0,-26.93,-38.3,-51.23,172.33,-79.48,143.64,0.0,1020.44,70.916,50.36928,-4.138435,63.0,NaN,,14.94,6.0,81.1,12 / 25,"$GPGSV,3,3,10,29,03,082,21,10,13,149,*76::$GPGGA,183950,5022.157285,N,00408.302386,W,2,09,2.0,16.0,M,47.0,M,,*63::$GPVTG,77.7,T,77.7,M,8.6,N,16.0,K,D*1F::$GLGSV,3,3,10,83,23,056,,67,12,014,*6A::$GPRMC,183950,A,5022.157285,N,00408.302386,W,8.6,77.7,260417,4.8,W,D*22::$GPGSA,A,3,04,07,08,16,18,21,26,27,29,,,,2.2,2.0,0.9*35",20404,2017-04-26 19:40:13:602
-1.6213,5.7146,6.4042,,,,,,,,,,138.0,-26.5,-40.06,-51.22,108.53,-29.92,7.76,0.0,1020.44,70.916,50.36928,-4.138435,63.0,NaN,,14.94,6.0,81.1,12 / 25,"$GPGSV,3,3,10,29,03,082,21,10,13,149,*76::$GPGGA,183950,5022.157285,N,00408.302386,W,2,09,2.0,16.0,M,47.0,M,,*63::$GPVTG,77.7,T,77.7,M,8.6,N,16.0,K,D*1F::$GLGSV,3,3,10,83,23,056,,67,12,014,*6A::$GPRMC,183950,A,5022.157285,N,00408.302386,W,8.6,77.7,260417,4.8,W,D*22::$GPGSA,A,3,04,07,08,16,18,21,26,27,29,,,,2.2,2.0,0.9*35",20604,2017-04-26 19:40:13:802
3.7798,5.4473,2.7661,,,,,,,,,,134.0,-27.36,-42.35,-50.48,96.51,-40.86,14.21,0.0,1020.5,74.582,50.36928,-4.138435,63.0,NaN,,14.94,6.0,81.1,12 / 25,"$GPGSV,3,3,10,29,03,082,21,10,13,149,*76::$GPGGA,183950,5022.157285,N,00408.302386,W,2,09,2.0,16.0,M,47.0,M,,*63::$GPVTG,77.7,T,77.7,M,8.6,N,16.0,K,D*1F::$GLGSV,3,3,10,83,23,056,,67,12,014,*6A::$GPRMC,183950,A,5022.157285,N,00408.302386,W,8.6,77.7,260417,4.8,W,D*22::$GPGSA,A,3,04,07,08,16,18,21,26,27,29,,,,2.2,2.0,0.9*35",20804,2017-04-26 19:40:14:002
1.252,7.9119,-4.8704,,,,,,,,,,155.0,-28.62,-42.81,-49.53,297.52,-49.31,-53.8,0.0,1020.5,73.641,50.36928,-4.138435,63.0,NaN,,14.94,6.0,81.1,12 / 25,"$GPGSV,3,3,10,29,03,082,21,10,13,149,*76::$GPGGA,183950,5022.157285,N,00408.302386,W,2,09,2.0,16.0,M,47.0,M,,*63::$GPVTG,77.7,T,77.7,M,8.6,N,16.0,K,D*1F::$GLGSV,3,3,10,83,23,056,,67,12,014,*6A::$GPRMC,183950,A,5022.157285,N,00408.302386,W,8.6,77.7,260417,4.8,W,D*22::$GPGSA,A,3,04,07,08,16,18,21,26,27,29,,,,2.2,2.0,0.9*35",21004,2017-04-26 19:40:14:202
5.6974,4.5466,-1.7882,,,,,,,,,,155.0,-30.01,-41.54,-49.91,216.01,-57.56,-165.58,0.0,1020.42,73.641,50.3693,-4.138305,64.0,NaN,,16.74,6.0,75.9,12 / 25,"$GPGSV,3,3,10,29,03,082,21,10,13,149,*76::$GPGGA,183950,5022.157285,N,00408.302386,W,2,09,2.0,16.0,M,47.0,M,,*63::$GPVTG,77.7,T,77.7,M,8.6,N,16.0,K,D*1F::$GLGSV,3,3,10,83,23,056,,67,12,014,*6A::$GPRMC,183950,A,5022.157285,N,00408.302386,W,8.6,77.7,260417,4.8,W,D*22::$GPGSA,A,3,04,07,08,16,18,21,26,27,29,,,,2.2,2.0,0.9*35",21205,2017-04-26 19:40:14:403
-0.4464,5.7121,11.4846,,,,,,,,,,152.0,-30.64,-39.73,-50.58,248.21,-37.29,-107.43,0.0,1020.44,71.596,50.3693,-4.138305,64.0,NaN,,16.74,6.0,75.9,11 / 16,"$GPGSV,3,3,10,27,52,278,23,29,03,082,21*77::$GPGGA,183951,5022.158003,N,00408.298278,W,2,10,1.2,17.0,M,47.0,M,,*6B::$GPVTG,75.9,T,75.9,M,9.0,N,16.7,K,D*1F::$GLGSV,1,1,0,*79::$GPRMC,183951,A,5022.158003,N,00408.298278,W,9.0,75.9,260417,4.8,W,D*29::$GPGSA,A,3,04,08,10,16,18,20,21,26,27,29,,,1.5,1.2,0.9*34",21404,2017-04-26 19:40:14:602
-0.4464,5.7121,11.4846,,,,,,,,,,152.0,-30.18,-38.52,-52.43,111.05,-26.43,2.23,0.0,1020.44,71.596,50.3693,-4.138305,64.0,NaN,,16.74,6.0,75.9,11 / 16,"$GPGSV,3,3,10,27,52,278,23,29,03,082,21*77::$GPGGA,183951,5022.158003,N,00408.298278,W,2,10,1.2,17.0,M,47.0,M,,*6B::$GPVTG,75.9,T,75.9,M,9.0,N,16.7,K,D*1F::$GLGSV,1,1,0,*79::$GPRMC,183951,A,5022.158003,N,00408.298278,W,9.0,75.9,260417,4.8,W,D*29::$GPGSA,A,3,04,08,10,16,18,20,21,26,27,29,,,1.5,1.2,0.9*34",21604,2017-04-26 19:40:14:802
0.0515,6.7382,4.5984,,,,,,,,,,119.0,-30.18,-38.52,-52.43,111.05,-26.43,2.23,0.0,1020.45,71.849,50.3693,-4.138305,64.0,NaN,,16.74,6.0,75.9,11 / 16,"$GPGSV,3,3,10,27,52,278,23,29,03,082,21*77::$GPGGA,183951,5022.158003,N,00408.298278,W,2,10,1.2,17.0,M,47.0,M,,*6B::$GPVTG,75.9,T,75.9,M,9.0,N,16.7,K,D*1F::$GLGSV,1,1,0,*79::$GPRMC,183951,A,5022.158003,N,00408.298278,W,9.0,75.9,260417,4.8,W,D*29::$GPGSA,A,3,04,08,10,16,18,20,21,26,27,29,,,1.5,1.2,0.9*34",21804,2017-04-26 19:40:15:002
4.1769,5.5039,-5.3712,,,,,,,,,,124.0,-27.37,-39.72,-54.94,48.76,-55.69,-0.64,0.0,1020.45,72.179,50.3693,-4.138305,64.0,NaN,,16.74,6.0,75.9,11 / 16,"$GPGSV,3,3,10,27,52,278,23,29,03,082,21*77::$GPGGA,183951,5022.158003,N,00408.298278,W,2,10,1.2,17.0,M,47.0,M,,*6B::$GPVTG,75.9,T,75.9,M,9.0,N,16.7,K,D*1F::$GLGSV,1,1,0,*79::$GPRMC,183951,A,5022.158003,N,00408.298278,W,9.0,75.9,260417,4.8,W,D*29::$GPGSA,A,3,04,08,10,16,18,20,21,26,27,29,,,1.5,1.2,0.9*34",22004,2017-04-26 19:40:15:202
0.3281,2.4289,5.527,,,,,,,,,,124.0,-25.31,-41.84,-56.04,226.81,-38.97,-142.13,0.0,1020.48,72.179,50.3693,-4.138305,64.0,NaN,,16.74,6.0,75.9,11 / 16,"$GPGSV,3,3,10,27,52,278,23,29,03,082,21*77::$GPGGA,183951,5022.158003,N,00408.298278,W,2,10,1.2,17.0,M,47.0,M,,*6B::$GPVTG,75.9,T,75.9,M,9.0,N,16.7,K,D*1F::$GLGSV,1,1,0,*79::$GPRMC,183951,A,5022.158003,N,00408.298278,W,9.0,75.9,260417,4.8,W,D*29::$GPGSA,A,3,04,08,10,16,18,20,21,26,27,29,,,1.5,1.2,0.9*34",22204,2017-04-26 19:40:15:402
0.3291,5.7706,4.7875,,,,,,,,,,127.0,-23.28,-43.34,-56.36,129.81,-23.69,-3.4,0.0,1020.48,71.811,50.3693,-4.138305,64.0,NaN,,16.74,6.0,75.9,8 / 15,"$GPGSV,3,3,10,08,16,271,,29,03,082,*71::$GPGGA,183952,5022.158112,N,00408.294066,W,2,07,1.8,15.0,M,47.0,M,,*66::$GPVTG,87.0,T,87.0,M,8.7,N,16.1,K,D*1F::$GLGSV,1,1,0,*79::$GPRMC,183952,A,5022.158112,N,00408.294066,W,8.7,87.0,260417,4.8,W,D*28::$GPGSA,A,3,04,10,16,18,20,21,26,,,,,,2.0,1.8,0.9*3E",22404,2017-04-26 19:40:15:602
0.5414,1.7763,9.7337,,,,,,,,,,127.0,-22.23,-44.82,-56.47,49.72,-50.25,-3.93,0.0,1020.48,73.317,50.3693,-4.138305,64.0,NaN,,16.74,6.0,75.9,8 / 15,"$GPGSV,3,3,10,08,16,271,,29,03,082,*71::$GPGGA,183952,5022.158112,N,00408.294066,W,2,07,1.8,15.0,M,47.0,M,,*66::$GPVTG,87.0,T,87.0,M,8.7,N,16.1,K,D*1F::$GLGSV,1,1,0,*79::$GPRMC,183952,A,5022.158112,N,00408.294066,W,8.7,87.0,260417,4.8,W,D*28::$GPGSA,A,3,04,10,16,18,20,21,26,,,,,,2.0,1.8,0.9*3E",22603,2017-04-26 19:40:15:801
-3.421,7.9244,9.4009,,,,,,,,,,143.0,-20.85,-46.7,-55.57,153.62,-10.33,-3.18,0.0,1020.45,73.317,50.3693,-4.138305,64.0,NaN,,16.74,6.0,75.9,8 / 15,"$GPGSV,3,3,10,08,16,271,,29,03,082,*71::$GPGGA,183952,5022.158112,N,00408.294066,W,2,07,1.8,15.0,M,47.0,M,,*66::$GPVTG,87.0,T,87.0,M,8.7,N,16.1,K,D*1F::$GLGSV,1,1,0,*79::$GPRMC,183952,A,5022.158112,N,00408.294066,W,8.7,87.0,260417,4.8,W,D*28::$GPGSA,A,3,04,10,16,18,20,21,26,,,,,,2.0,1.8,0.9*3E",22804,2017-04-26 19:40:16:002
-3.421,7.9244,9.4009,,,,,,,,,,174.0,-20.43,-48.81,-54.24,106.66,-38.38,20.0,0.0,1020.45,71.421,50.3693,-4.138305,64.0,NaN,,16.74,6.0,75.9,8 / 15,"$GPGSV,3,3,10,08,16,271,,29,03,082,*71::$GPGGA,183952,5022.158112,N,00408.294066,W,2,07,1.8,15.0,M,47.0,M,,*66::$GPVTG,87.0,T,87.0,M,8.7,N,16.1,K,D*1F::$GLGSV,1,1,0,*79::$GPRMC,183952,A,5022.158112,N,00408.294066,W,8.7,87.0,260417,4.8,W,D*28::$GPGSA,A,3,04,10,16,18,20,21,26,,,,,,2.0,1.8,0.9*3E",23004,2017-04-26 19:40:16:202
-1.1902,5.5566,9.5721,,,,,,,,,,174.0,-20.16,-50.2,-52.93,124.75,-29.94,7.09,0.0,1020.45,71.421,50.369297,-4.138171,61.0,NaN,,14.51,6.0,108.9,8 / 15,"$GPGSV,3,3,10,08,16,271,,29,03,082,*71::$GPGGA,183952,5022.158112,N,00408.294066,W,2,07,1.8,15.0,M,47.0,M,,*66::$GPVTG,87.0,T,87.0,M,8.7,N,16.1,K,D*1F::$GLGSV,1,1,0,*79::$GPRMC,183952,A,5022.158112,N,00408.294066,W,8.7,87.0,260417,4.8,W,D*28::$GPGSA,A,3,04,10,16,18,20,21,26,,,,,,2.0,1.8,0.9*3E",23203,2017-04-26 19:40:16:401
-0.0986,5.9785,2.5845,,,,,,,,,,197.0,-20.75,-50.93,-52.39,40.69,-66.61,2.18,0.0,1020.49,72.99,50.369297,-4.138171,61.0,NaN,,14.51,6.0,108.9,10 / 16,"$GPGSV,3,3,11,27,52,278,28,08,16,271,,29,03,082,*45::$GPGGA,183953,5022.157792,N,00408.290250,W,2,09,1.1,14.0,M,47.0,M,,*63::$GPVTG,108.9,T,108.9,M,7.8,N,14.5,K,D*19::$GLGSV,1,1,0,*79::$GPRMC,183953,A,5022.157792,N,00408.290250,W,7.8,108.9,260417,4.8,W,D*14::$GPGSA,A,3,04,07,10,16,18,20,21,26,27,,,,1.3,1.1,0.8*34",23404,2017-04-26 19:40:16:602
-1.1264,5.4155,7.6064,,,,,,,,,,197.0,-20.35,-51.79,-51.39,119.07,-35.16,8.42,0.0,1020.49,71.362,50.369297,-4.138171,61.0,NaN,,14.51,6.0,108.9,10 / 16,"$GPGSV,3,3,11,27,52,278,28,08,16,271,,29,03,082,*45::$GPGGA,183953,5022.157792,N,00408.290250,W,2,09,1.1,14.0,M,47.0,M,,*63::$GPVTG,108.9,T,108.9,M,7.8,N,14.5,K,D*19::$GLGSV,1,1,0,*79::$GPRMC,183953,A,5022.157792,N,00408.290250,W,7.8,108.9,260417,4.8,W,D*14::$GPGSA,A,3,04,07,10,16,18,20,21,26,27,,,,1.3,1.1,0.8*34",23604,2017-04-26 19:40:16:802
-1.0977,7.1678,9.6188,,,,,,,,,,269.0,-19.72,-52.75,-50.64,122.86,-34.36,6.05,0.0,1020.42,71.362,50.369297,-4.138171,61.0,NaN,,14.51,6.0,108.9,10 / 16,"$GPGSV,3,3,11,27,52,278,28,08,16,271,,29,03,082,*45::$GPGGA,183953,5022.157792,N,00408.290250,W,2,09,1.1,14.0,M,47.0,M,,*63::$GPVTG,108.9,T,108.9,M,7.8,N,14.5,K,D*19::$GLGSV,1,1,0,*79::$GPRMC,183953,A,5022.157792,N,00408.290250,W,7.8,108.9,260417,4.8,W,D*14::$GPGSA,A,3,04,07,10,16,18,20,21,26,27,,,,1.3,1.1,0.8*34",23804,2017-04-26 19:40:17:002
-2.6333,3.8523,8.0257,,,,,,,,,,269.0,-19.72,-53.24,-49.81,119.39,-36.52,6.51,0.0,1020.42,72.195,50.369297,-4.138171,61.0,NaN,,14.51,6.0,108.9,10 / 16,"$GPGSV,3,3,11,27,52,278,28,08,16,271,,29,03,082,*45::$GPGGA,183953,5022.157792,N,00408.290250,W,2,09,1.1,14.0,M,47.0,M,,*63::$GPVTG,108.9,T,108.9,M,7.8,N,14.5,K,D*19::$GLGSV,1,1,0,*79::$GPRMC,183953,A,5022.157792,N,00408.290250,W,7.8,108.9,260417,4.8,W,D*14::$GPGSA,A,3,04,07,10,16,18,20,21,26,27,,,,1.3,1.1,0.8*34",24004,2017-04-26 19:40:17:202
0.1227,5.2283,2.5545,,,,,,,,,,287.0,-19.32,-53.61,-49.37,134.07,-24.52,18.17,0.0,1020.49,72.195,50.369297,-4.138171,61.0,NaN,,14.51,6.0,108.9,10 / 16,"$GPGSV,3,3,11,27,52,278,28,08,16,271,,29,03,082,*45::$GPGGA,183953,5022.157792,N,00408.290250,W,2,09,1.1,14.0,M,47.0,M,,*63::$GPVTG,108.9,T,108.9,M,7.8,N,14.5,K,D*19::$GLGSV,1,1,0,*79::$GPRMC,183953,A,5022.157792,N,00408.290250,W,7.8,108.9,260417,4.8,W,D*14::$GPGSA,A,3,04,07,10,16,18,20,21,26,27,,,,1.3,1.1,0.8*34",24204,2017-04-26 19:40:17:402
0.1227,5.2283,2.5545,,,,,,,,,,272.0,-19.32,-53.61,-49.37,134.07,-24.52,18.17,0.0,1020.53,73.122,50.369297,-4.138171,61.0,NaN,,14.51,6.0,108.9,11 / 16,"$GPGSV,3,3,11,26,58,157,43,27,52,278,31,29,03,082,*4B::$GPGGA,183954,5022.156227,N,00408.286286,W,2,10,0.9,14.0,M,47.0,M,,*63::$GPVTG,128.5,T,128.5,M,9.2,N,17.0,K,D*1B::$GLGSV,1,1,0,*79::$GPRMC,183954,A,5022.156227,N,00408.286286,W,9.2,128.5,260417,4.8,W,D*1F::$GPGSA,A,3,04,07,08,10,16,18,20,21,26,27,,,1.2,0.9,0.8*34",24403,2017-04-26 19:40:17:601
-0.7563,8.837,3.7856,,,,,,,,,,272.0,-17.37,-54.56,-47.85,36.78,-63.93,-2.75,0.0,1020.53,71.316,50.369297,-4.138171,61.0,NaN,,14.51,6.0,108.9,11 / 16,"$GPGSV,3,3,11,26,58,157,43,27,52,278,31,29,03,082,*4B::$GPGGA,183954,5022.156227,N,00408.286286,W,2,10,0.9,14.0,M,47.0,M,,*63::$GPVTG,128.5,T,128.5,M,9.2,N,17.0,K,D*1B::$GLGSV,1,1,0,*79::$GPRMC,183954,A,5022.156227,N,00408.286286,W,9.2,128.5,260417,4.8,W,D*1F::$GPGSA,A,3,04,07,08,10,16,18,20,21,26,27,,,1.2,0.9,0.8*34",24603,2017-04-26 19:40:17:801
