ACCELEROMETER X (m/s²),ACCELEROMETER Y (m/s²),ACCELEROMETER Z (m/s²),GRAVITY X (m/s²),GRAVITY Y (m/s²),GRAVITY Z (m/s²),LINEAR ACCELERATION X (m/s²),LINEAR ACCELERATION Y (m/s²),LINEAR ACCELERATION Z (m/s²),GYROSCOPE X (rad/s),GYROSCOPE Y (rad/s),GYROSCOPE Z (rad/s),LIGHT (lux),MAGNETIC FIELD X (μT),MAGNETIC FIELD Y (μT),MAGNETIC FIELD Z (μT),ORIENTATION Z (azimuth °),ORIENTATION X (pitch °),ORIENTATION Y (roll °),PROXIMITY (m),ATMOSPHERIC PRESSURE (hPa),SOUND LEVEL (dB),LOCATION Latitude : ,LOCATION Longitude : ,LOCATION Altitude ( m),LOCATION Altitude-google ( m),LOCATION Altitude-atmospheric pressure ( m),LOCATION Speed ( Kmh),LOCATION Accuracy ( m),LOCATION ORIENTATION (°),Satellites in range,GPS NMEA,Time since start in ms ,YYYY-MO-DD HH-MI-SS_SSS
2.2029,3.8759,9.2358,,,,,,,,,,1532.0,26.97,-8.41,-43.48,309.8,-31.7,7.71,5.0,1017.36,48.559,50.375126,-4.138795,191.0,NaN,,0.0,22.0,,14 / 27,"$GPGSV,3,3,12,27,50,277,21,29,05,081,16,07,13,324,,31,00,000,*79::$GPGGA,183513,5022.502209,N,00408.329597,W,2,09,0.7,151.0,M,47.0,M,,*50::$GPVTG,,T,,M,0.0,N,0.0,K,D*26::$GLGSV,3,3,10,76,02,338,,69,07,116,*61::$GPRMC,183513,A,5022.502209,N,00408.329597,W,0.0,,260417,4.8,W,D*31::$GPGSA,A,3,04,08,10,16,18,20,21,26,27,,,,1.2,0.7,0.9*3C",17,2017-04-26 19:35:36:612
3.1028,3.9787,8.743,,,,,,,,,,1532.0,18.34,-5.35,-48.44,291.77,-22.21,-13.42,5.0,1017.36,48.559,50.375126,-4.138795,191.0,NaN,,0.0,22.0,,14 / 27,"$GPGSV,3,3,12,27,50,277,21,29,05,081,16,07,13,324,,31,00,000,*79::$GPGGA,183513,5022.502209,N,00408.329597,W,2,09,0.7,151.0,M,47.0,M,,*50::$GPVTG,,T,,M,0.0,N,0.0,K,D*26::$GLGSV,3,3,10,76,02,338,,69,07,116,*61::$GPRMC,183513,A,5022.502209,N,00408.329597,W,0.0,,260417,4.8,W,D*31::$GPGSA,A,3,04,08,10,16,18,20,21,26,27,,,,1.2,0.7,0.9*3C",217,2017-04-26 19:35:36:812
0.8865,5.1275,8.2323,,,,,,,,,,1777.0,9.6,-2.89,-51.84,299.61,-23.21,-19.54,5.0,1017.35,50.492,50.375126,-4.138795,191.0,NaN,,0.0,22.0,,14 / 27,"$GPGSV,3,3,12,27,50,277,21,29,05,081,16,07,13,324,,31,00,000,*79::$GPGGA,183513,5022.502209,N,00408.329597,W,2,09,0.7,151.0,M,47.0,M,,*50::$GPVTG,,T,,M,0.0,N,0.0,K,D*26::$GLGSV,3,3,10,76,02,338,,69,07,116,*61::$GPRMC,183513,A,5022.502209,N,00408.329597,W,0.0,,260417,4.8,W,D*31::$GPGSA,A,3,04,08,10,16,18,20,21,26,27,,,,1.2,0.7,0.9*3C",417,2017-04-26 19:35:37:012
-0.0549,4.8597,7.7501,,,,,,,,,,1777.0,5.15,-1.21,-53.29,350.4,-32.09,0.41,5.0,1017.36,51.52,50.375126,-4.138795,191.0,NaN,,0.0,22.0,,14 / 27,"$GPGSV,3,3,12,27,50,277,21,29,05,081,16,07,13,324,,31,00,000,*79::$GPGGA,183513,5022.502209,N,00408.329597,W,2,09,0.7,151.0,M,47.0,M,,*50::$GPVTG,,T,,M,0.0,N,0.0,K,D*26::$GLGSV,3,3,10,76,02,338,,69,07,116,*61::$GPRMC,183513,A,5022.502209,N,00408.329597,W,0.0,,260417,4.8,W,D*31::$GPGSA,A,3,04,08,10,16,18,20,21,26,27,,,,1.2,0.7,0.9*3C",617,2017-04-26 19:35:37:212
-1.8931,4.0398,7.5921,,,,,,,,,,1628.0,3.5,-1.96,-53.81,22.02,-27.31,14.0,5.0,1017.36,51.52,50.375126,-4.138795,191.0,NaN,,0.0,22.0,,14 / 27,"$GPGSV,3,3,12,27,50,277,21,29,05,081,16,07,13,324,,31,00,000,*79::$GPGGA,183513,5022.502209,N,00408.329597,W,2,09,0.7,151.0,M,47.0,M,,*50::$GPVTG,,T,,M,0.0,N,0.0,K,D*26::$GLGSV,3,3,10,76,02,338,,69,07,116,*61::$GPRMC,183513,A,5022.502209,N,00408.329597,W,0.0,,260417,4.8,W,D*31::$GPGSA,A,3,04,08,10,16,18,20,21,26,27,,,,1.2,0.7,0.9*3C",817,2017-04-26 19:35:37:412
-1.85,4.2645,7.912,,,,,,,,,,1628.0,3.0,-4.16,-54.12,23.84,-27.69,13.16,5.0,1017.35,52.924,50.375313,-4.138201,367.0,NaN,,0.0,34.0,,14 / 26,"$GPGSV,3,3,11,27,50,277,21,07,13,324,,31,00,000,*4A::$GPGGA,183514,5022.518722,N,00408.292080,W,2,09,1.2,320.0,M,47.0,M,,*52::$GPVTG,,T,,M,0.0,N,0.0,K,D*26::$GLGSV,3,3,10,76,02,338,,69,07,116,*61::$GPRMC,183514,A,5022.518722,N,00408.292080,W,0.0,,260417,4.8,W,D*33::$GPGSA,A,3,04,08,10,16,18,20,21,26,27,,,,2.0,1.2,1.6*37",1017,2017-04-26 19:35:37:612
-1.671,4.9491,8.5183,,,,,,,,,,1559.0,1.65,-6.1,-54.49,21.67,-29.69,11.1,5.0,1017.35,52.924,50.375313,-4.138201,367.0,NaN,,0.0,34.0,,14 / 26,"$GPGSV,3,3,11,27,50,277,21,07,13,324,,31,00,000,*4A::$GPGGA,183514,5022.518722,N,00408.292080,W,2,09,1.2,320.0,M,47.0,M,,*52::$GPVTG,,T,,M,0.0,N,0.0,K,D*26::$GLGSV,3,3,10,76,02,338,,69,07,116,*61::$GPRMC,183514,A,5022.518722,N,00408.292080,W,0.0,,260417,4.8,W,D*33::$GPGSA,A,3,04,08,10,16,18,20,21,26,27,,,,2.0,1.2,1.6*37",1217,2017-04-26 19:35:37:812
-1.1528,4.5291,8.2581,,,,,,,,,,1741.0,0.22,-5.12,-54.72,18.26,-27.79,7.24,5.0,1017.35,52.661,50.375313,-4.138201,367.0,NaN,,0.0,34.0,,14 / 26,"$GPGSV,3,3,11,27,50,277,21,07,13,324,,31,00,000,*4A::$GPGGA,183514,5022.518722,N,00408.292080,W,2,09,1.2,320.0,M,47.0,M,,*52::$GPVTG,,T,,M,0.0,N,0.0,K,D*26::$GLGSV,3,3,10,76,02,338,,69,07,116,*61::$GPRMC,183514,A,5022.518722,N,00408.292080,W,0.0,,260417,4.8,W,D*33::$GPGSA,A,3,04,08,10,16,18,20,21,26,27,,,,2.0,1.2,1.6*37",1417,2017-04-26 19:35:38:012
-1.1314,4.2901,8.6511,,,,,,,,,,1741.0,-0.19,-2.96,-54.61,18.03,-28.51,7.95,5.0,1017.36,46.878,50.375313,-4.138201,367.0,NaN,,0.0,34.0,,14 / 26,"$GPGSV,3,3,11,27,50,277,21,07,13,324,,31,00,000,*4A::$GPGGA,183514,5022.518722,N,00408.292080,W,2,09,1.2,320.0,M,47.0,M,,*52::$GPVTG,,T,,M,0.0,N,0.0,K,D*26::$GLGSV,3,3,10,76,02,338,,69,07,116,*61::$GPRMC,183514,A,5022.518722,N,00408.292080,W,0.0,,260417,4.8,W,D*33::$GPGSA,A,3,04,08,10,16,18,20,21,26,27,,,,2.0,1.2,1.6*37",1617,2017-04-26 19:35:38:212
-1.0733,4.3769,8.6337,,,,,,,,,,1763.0,-0.49,-1.73,-54.56,17.76,-26.18,7.45,5.0,1017.36,46.878,50.375313,-4.138201,367.0,NaN,,0.0,34.0,,14 / 26,"$GPGSV,3,3,11,27,50,277,21,07,13,324,,31,00,000,*4A::$GPGGA,183514,5022.518722,N,00408.292080,W,2,09,1.2,320.0,M,47.0,M,,*52::$GPVTG,,T,,M,0.0,N,0.0,K,D*26::$GLGSV,3,3,10,76,02,338,,69,07,116,*61::$GPRMC,183514,A,5022.518722,N,00408.292080,W,0.0,,260417,4.8,W,D*33::$GPGSA,A,3,04,08,10,16,18,20,21,26,27,,,,2.0,1.2,1.6*37",1816,2017-04-26 19:35:38:411
-1.0067,4.3628,8.5691,,,,,,,,,,1763.0,-0.58,-1.64,-54.43,18.99,-26.71,7.09,5.0,1017.36,54.52,50.375313,-4.138201,367.0,NaN,,0.0,34.0,,15 / 27,"$GPGSV,3,3,12,26,60,157,31,27,50,277,18,29,05,081,,31,00,000,*77::$GPGGA,183515,5022.522850,N,00408.320912,W,2,10,0.6,149.0,M,47.0,M,,*5A::$GPVTG,,T,,M,0.0,N,0.0,K,D*26::$GLGSV,3,3,10,76,02,338,,69,07,116,*61::$GPRMC,183515,A,5022.522850,N,00408.320912,W,0.0,,260417,4.8,W,D*3B::$GPGSA,A,3,04,07,08,10,16,18,20,21,26,27,,,1.1,0.6,0.9*39",2017,2017-04-26 19:35:38:612
-0.8931,4.5873,8.762,,,,,,,,,,1741.0,-0.81,-2.03,-54.8,15.65,-27.51,5.82,5.0,1017.36,54.52,50.375313,-4.138201,367.0,NaN,,0.0,34.0,,15 / 27,"$GPGSV,3,3,12,26,60,157,31,27,50,277,18,29,05,081,,31,00,000,*77::$GPGGA,183515,5022.522850,N,00408.320912,W,2,10,0.6,149.0,M,47.0,M,,*5A::$GPVTG,,T,,M,0.0,N,0.0,K,D*26::$GLGSV,3,3,10,76,02,338,,69,07,116,*61::$GPRMC,183515,A,5022.522850,N,00408.320912,W,0.0,,260417,4.8,W,D*3B::$GPGSA,A,3,04,07,08,10,16,18,20,21,26,27,,,1.1,0.6,0.9*39",2217,2017-04-26 19:35:38:812
-0.4542,7.178,8.5976,,,,,,,,,,1630.0,-0.61,-2.94,-54.96,6.77,-39.82,3.02,5.0,1017.35,66.503,50.375313,-4.138201,367.0,NaN,,0.0,34.0,,15 / 27,"$GPGSV,3,3,12,26,60,157,31,27,50,277,18,29,05,081,,31,00,000,*77::$GPGGA,183515,5022.522850,N,00408.320912,W,2,10,0.6,149.0,M,47.0,M,,*5A::$GPVTG,,T,,M,0.0,N,0.0,K,D*26::$GLGSV,3,3,10,76,02,338,,69,07,116,*61::$GPRMC,183515,A,5022.522850,N,00408.320912,W,0.0,,260417,4.8,W,D*3B::$GPGSA,A,3,04,07,08,10,16,18,20,21,26,27,,,1.1,0.6,0.9*39",2416,2017-04-26 19:35:39:011
-2.9748,4.5846,6.9237,,,,,,,,,,1630.0,0.62,-6.55,-54.95,45.42,-31.32,23.25,5.0,1017.36,49.156,50.375313,-4.138201,367.0,NaN,,0.0,34.0,,15 / 27,"$GPGSV,3,3,12,26,60,157,31,27,50,277,18,29,05,081,,31,00,000,*77::$GPGGA,183515,5022.522850,N,00408.320912,W,2,10,0.6,149.0,M,47.0,M,,*5A::$GPVTG,,T,,M,0.0,N,0.0,K,D*26::$GLGSV,3,3,10,76,02,338,,69,07,116,*61::$GPRMC,183515,A,5022.522850,N,00408.320912,W,0.0,,260417,4.8,W,D*3B::$GPGSA,A,3,04,07,08,10,16,18,20,21,26,27,,,1.1,0.6,0.9*39",2617,2017-04-26 19:35:39:212
-3.8664,3.6377,8.1495,,,,,,,,,,1515.0,3.85,-14.65,-53.91,75.7,-21.96,25.38,5.0,1017.36,49.156,50.375336,-4.138698,186.0,NaN,,0.0,12.0,,15 / 27,"$GPGSV,3,3,12,26,60,157,29,27,50,277,18,29,05,081,,31,00,000,*7E::$GPGGA,183515,5022.522850,N,00408.320912,W,2,10,0.6,149.0,M,47.0,M,,*5A::$GPVTG,,T,,M,0.0,N,0.0,K,D*26::$GLGSV,3,3,10,76,02,338,,69,07,116,*61::$GPRMC,183515,A,5022.522850,N,00408.320912,W,0.0,,260417,4.8,W,D*3B::$GPGSA,A,3,04,07,08,10,16,18,20,21,26,27,,,1.1,0.6,0.9*39",2817,2017-04-26 19:35:39:412
-3.873,5.5575,7.7883,,,,,,,,,,1515.0,3.85,-14.65,-53.91,75.7,-21.96,25.38,5.0,1017.39,49.041,50.375336,-4.138698,186.0,NaN,,0.0,12.0,,15 / 27,"$GPGSV,3,3,12,26,60,157,29,27,50,277,18,29,05,081,,31,00,000,*7E::$GPGGA,183516,5022.520198,N,00408.321857,W,2,10,1.0,139.0,M,47.0,M,,*57::$GPVTG,,T,,M,0.0,N,0.0,K,D*26::$GLGSV,3,3,10,76,02,338,,69,07,116,*61::$GPRMC,183516,A,5022.520198,N,00408.321857,W,0.0,,260417,4.8,W,D*36::$GPGSA,A,3,04,07,08,10,16,18,20,21,26,27,,,1.3,1.0,0.8*3D",3017,2017-04-26 19:35:39:612
-5.1723,6.7118,8.3215,,,,,,,,,,1338.0,9.86,-22.26,-53.28,57.28,-32.58,26.44,5.0,1017.39,63.777,50.375336,-4.138698,186.0,NaN,,0.0,12.0,,15 / 27,"$GPGSV,3,3,12,26,60,157,29,27,50,277,18,29,05,081,,31,00,000,*7E::$GPGGA,183516,5022.520198,N,00408.321857,W,2,10,1.0,139.0,M,47.0,M,,*57::$GPVTG,,T,,M,0.0,N,0.0,K,D*26::$GLGSV,3,3,10,76,02,338,,69,07,116,*61::$GPRMC,183516,A,5022.520198,N,00408.321857,W,0.0,,260417,4.8,W,D*36::$GPGSA,A,3,04,07,08,10,16,18,20,21,26,27,,,1.3,1.0,0.8*3D",3216,2017-04-26 19:35:39:811
-3.8053,3.9923,6.2597,,,,,,,,,,1338.0,11.91,-25.77,-52.75,66.95,-34.41,31.86,5.0,1017.36,63.777,50.375336,-4.138698,186.0,NaN,,0.0,12.0,,15 / 27,"$GPGSV,3,3,12,26,60,157,29,27,50,277,18,29,05,081,,31,00,000,*7E::$GPGGA,183516,5022.520198,N,00408.321857,W,2,10,1.0,139.0,M,47.0,M,,*57::$GPVTG,,T,,M,0.0,N,0.0,K,D*26::$GLGSV,3,3,10,76,02,338,,69,07,116,*61::$GPRMC,183516,A,5022.520198,N,00408.321857,W,0.0,,260417,4.8,W,D*36::$GPGSA,A,3,04,07,08,10,16,18,20,21,26,27,,,1.3,1.0,0.8*3D",3417,2017-04-26 19:35:40:012
-2.1997,10.3979,1.5729,,,,,,,,,,953.0,9.66,-31.81,-50.37,106.51,-28.59,31.3,0.0,1017.35,73.495,50.375336,-4.138698,186.0,NaN,,0.0,12.0,,15 / 27,"$GPGSV,3,3,12,26,60,157,29,27,50,277,18,29,05,081,,31,00,000,*7E::$GPGGA,183516,5022.520198,N,00408.321857,W,2,10,1.0,139.0,M,47.0,M,,*57::$GPVTG,,T,,M,0.0,N,0.0,K,D*26::$GLGSV,3,3,10,76,02,338,,69,07,116,*61::$GPRMC,183516,A,5022.520198,N,00408.321857,W,0.0,,260417,4.8,W,D*36::$GPGSA,A,3,04,07,08,10,16,18,20,21,26,27,,,1.3,1.0,0.8*3D",3617,2017-04-26 19:35:40:212
-3.002,6.3941,2.953,,,,,,,,,,636.0,3.55,-42.61,-49.23,62.06,-75.42,54.43,0.0,1017.35,73.495,50.375336,-4.138698,186.0,NaN,,0.0,12.0,,15 / 27,"$GPGSV,3,3,12,26,60,157,31,27,50,277,25,29,05,081,,31,00,000,*79::$GPGGA,183517,5022.521056,N,00408.321949,W,2,10,0.8,137.0,M,47.0,M,,*5D::$GPVTG,,T,,M,0.0,N,0.0,K,D*26::$GLGSV,3,3,10,76,02,338,,69,07,116,*61::$GPRMC,183517,A,5022.521056,N,00408.321949,W,0.0,,260417,4.8,W,D*3B::$GPGSA,A,3,04,07,08,10,16,18,20,21,26,27,,,1.1,0.8,0.8*36",3817,2017-04-26 19:35:40:412
-2.0602,9.4558,1.9574,,,,,,,,,,636.0,-4.49,-55.85,-50.66,94.83,-56.63,45.47,0.0,1017.37,71.893,50.375336,-4.138698,186.0,NaN,,0.0,12.0,,15 / 27,"$GPGSV,3,3,12,26,60,157,31,27,50,277,25,29,05,081,,31,00,000,*79::$GPGGA,183517,5022.521056,N,00408.321949,W,2,10,0.8,137.0,M,47.0,M,,*5D::$GPVTG,,T,,M,0.0,N,0.0,K,D*26::$GLGSV,3,3,10,76,02,338,,69,07,116,*61::$GPRMC,183517,A,5022.521056,N,00408.321949,W,0.0,,260417,4.8,W,D*3B::$GPGSA,A,3,04,07,08,10,16,18,20,21,26,27,,,1.1,0.8,0.8*36",4017,2017-04-26 19:35:40:612
-0.4775,8.9931,1.8026,,,,,,,,,,628.0,-9.0,-61.06,-51.67,76.55,-73.27,46.47,0.0,1017.37,64.383,50.375336,-4.138698,186.0,NaN,,0.0,12.0,,15 / 27,"$GPGSV,3,3,12,26,60,157,31,27,50,277,25,29,05,081,,31,00,000,*79::$GPGGA,183517,5022.521056,N,00408.321949,W,2,10,0.8,137.0,M,47.0,M,,*5D::$GPVTG,,T,,M,0.0,N,0.0,K,D*26::$GLGSV,3,3,10,76,02,338,,69,07,116,*61::$GPRMC,183517,A,5022.521056,N,00408.321949,W,0.0,,260417,4.8,W,D*3B::$GPGSA,A,3,04,07,08,10,16,18,20,21,26,27,,,1.1,0.8,0.8*36",4216,2017-04-26 19:35:40:811
-1.0481,8.9123,3.6969,,,,,,,,,,628.0,-13.23,-63.28,-50.89,38.49,-78.29,14.84,0.0,1017.37,64.383,50.375336,-4.138698,186.0,NaN,,0.0,12.0,,15 / 27,"$GPGSV,3,3,12,26,60,157,31,27,50,277,25,29,05,081,,31,00,000,*79::$GPGGA,183517,5022.521056,N,00408.321949,W,2,10,0.8,137.0,M,47.0,M,,*5D::$GPVTG,,T,,M,0.0,N,0.0,K,D*26::$GLGSV,3,3,10,76,02,338,,69,07,116,*61::$GPRMC,183517,A,5022.521056,N,00408.321949,W,0.0,,260417,4.8,W,D*3B::$GPGSA,A,3,04,07,08,10,16,18,20,21,26,27,,,1.1,0.8,0.8*36",4416,2017-04-26 19:35:41:011
-2.2475,9.4306,0.5703,,,,,,,,,,549.0,-15.6,-64.18,-49.01,64.13,-66.68,15.83,0.0,1017.36,68.798,50.375336,-4.138698,186.0,NaN,,0.0,12.0,,15 / 27,"$GPGSV,3,3,12,26,60,157,31,27,50,277,25,29,05,081,,31,00,000,*79::$GPGGA,183517,5022.521056,N,00408.321949,W,2,10,0.8,137.0,M,47.0,M,,*5D::$GPVTG,,T,,M,0.0,N,0.0,K,D*26::$GLGSV,3,3,10,76,02,338,,69,07,116,*61::$GPRMC,183517,A,5022.521056,N,00408.321949,W,0.0,,260417,4.8,W,D*3B::$GPGSA,A,3,04,07,08,10,16,18,20,21,26,27,,,1.1,0.8,0.8*36",4617,2017-04-26 19:35:41:212
-1.0116,9.2225,3.7968,,,,,,,,,,537.0,-16.37,-64.77,-47.54,110.75,-76.19,75.76,0.0,1017.36,68.798,50.375336,-4.138698,186.0,NaN,,0.0,12.0,,15 / 27,"$GPGSV,3,2,12,16,79,257,37,18,27,122,27,20,20,049,39,21,58,071,42*77::$GPGGA,183517,5022.521056,N,00408.321949,W,2,10,0.8,137.0,M,47.0,M,,*5D::$GPVTG,,T,,M,0.0,N,0.0,K,D*26::$GLGSV,3,3,10,76,02,338,,69,07,116,*61::$GPRMC,183517,A,5022.521056,N,00408.321949,W,0.0,,260417,4.8,W,D*3B::$GPGSA,A,3,04,07,08,10,16,18,20,21,26,27,,,1.1,0.8,0.8*36",4817,2017-04-26 19:35:41:412
-3.9427,8.2545,2.1475,,,,,,,,,,537.0,-14.02,-64.36,-47.79,113.47,-61.46,61.42,0.0,1017.34,71.224,50.375336,-4.138698,186.0,NaN,,0.0,12.0,,15 / 27,"$GPGSV,3,3,12,26,60,157,39,27,50,277,24,29,05,081,,31,00,000,*70::$GPGGA,183518,5022.520155,N,00408.322143,W,2,10,0.8,131.0,M,47.0,M,,*56::$GPVTG,,T,,M,0.0,N,0.0,K,D*26::$GLGSV,3,3,10,76,02,338,,69,07,116,*61::$GPRMC,183518,A,5022.520155,N,00408.322143,W,0.0,,260417,4.8,W,D*36::$GPGSA,A,3,04,07,08,10,16,18,20,21,26,27,,,1.1,0.8,0.8*36",5017,2017-04-26 19:35:41:612
-4.1753,8.3973,1.7761,,,,,,,,,,555.0,-10.13,-62.91,-50.25,112.64,-61.62,66.96,0.0,1017.34,67.427,50.375336,-4.138698,186.0,NaN,,0.0,12.0,,15 / 27,"$GPGSV,3,3,12,26,60,157,39,27,50,277,24,29,05,081,,31,00,000,*70::$GPGGA,183518,5022.520155,N,00408.322143,W,2,10,0.8,131.0,M,47.0,M,,*56::$GPVTG,,T,,M,0.0,N,0.0,K,D*26::$GLGSV,3,3,10,76,02,338,,69,07,116,*61::$GPRMC,183518,A,5022.520155,N,00408.322143,W,0.0,,260417,4.8,W,D*36::$GPGSA,A,3,04,07,08,10,16,18,20,21,26,27,,,1.1,0.8,0.8*36",5217,2017-04-26 19:35:41:812
-4.5218,8.8385,3.5452,,,,,,,,,,555.0,-5.93,-61.26,-51.46,103.87,-56.97,51.9,0.0,1017.4,67.427,50.375336,-4.138698,186.0,NaN,,0.0,12.0,,15 / 27,"$GPGSV,3,3,12,26,60,157,39,27,50,277,24,29,05,081,,31,00,000,*70::$GPGGA,183518,5022.520155,N,00408.322143,W,2,10,0.8,131.0,M,47.0,M,,*56::$GPVTG,,T,,M,0.0,N,0.0,K,D*26::$GLGSV,3,3,10,76,02,338,,69,07,116,*61::$GPRMC,183518,A,5022.520155,N,00408.322143,W,0.0,,260417,4.8,W,D*36::$GPGSA,A,3,04,07,08,10,16,18,20,21,26,27,,,1.1,0.8,0.8*36",5417,2017-04-26 19:35:42:012
-2.6824,9.0,2.5071,,,,,,,,,,428.0,-2.5,-56.22,-49.04,77.16,-67.81,46.94,5.0,1017.34,74.232,50.375336,-4.138698,186.0,NaN,,0.0,12.0,,15 / 27,"$GPGSV,3,3,12,26,60,157,39,27,50,277,24,29,05,081,,31,00,000,*70::$GPGGA,183518,5022.520155,N,00408.322143,W,2,10,0.8,131.0,M,47.0,M,,*56::$GPVTG,,T,,M,0.0,N,0.0,K,D*26::$GLGSV,3,3,10,76,02,338,,69,07,116,*61::$GPRMC,183518,A,5022.520155,N,00408.322143,W,0.0,,260417,4.8,W,D*36::$GPGSA,A,3,04,07,08,10,16,18,20,21,26,27,,,1.1,0.8,0.8*36",5616,2017-04-26 19:35:42:211
-3.5995,7.7888,2.5899,,,,,,,,,,757.0,-2.5,-56.22,-49.04,77.16,-67.81,46.94,5.0,1017.34,64.732,50.375328,-4.138703,175.0,NaN,,0.0,11.0,,15 / 27,"$GPGSV,3,3,12,26,60,157,36,27,50,277,22,29,05,081,,31,00,000,*79::$GPGGA,183519,5022.519541,N,00408.322178,W,2,10,0.9,128.0,M,47.0,M,,*5D::$GPVTG,,T,,M,0.0,N,0.0,K,D*26::$GLGSV,3,3,10,76,02,338,,69,07,116,*61::$GPRMC,183519,A,5022.519541,N,00408.322178,W,0.0,,260417,4.8,W,D*34::$GPGSA,A,3,04,07,08,10,16,18,20,21,26,27,,,1.2,0.9,0.8*34",5817,2017-04-26 19:35:42:412
-2.5737,6.5719,5.7549,,,,,,,,,,757.0,-0.54,-46.19,-43.58,91.79,-60.35,54.26,5.0,1017.35,64.732,50.375328,-4.138703,175.0,NaN,,0.0,11.0,,15 / 27,"$GPGSV,3,3,12,26,60,157,36,27,50,277,22,29,05,081,,31,00,000,*79::$GPGGA,183519,5022.519541,N,00408.322178,W,2,10,0.9,128.0,M,47.0,M,,*5D::$GPVTG,,T,,M,0.0,N,0.0,K,D*26::$GLGSV,3,3,10,76,02,338,,69,07,116,*61::$GPRMC,183519,A,5022.519541,N,00408.322178,W,0.0,,260417,4.8,W,D*34::$GPGSA,A,3,04,07,08,10,16,18,20,21,26,27,,,1.2,0.9,0.8*34",6017,2017-04-26 19:35:42:612
-1.8146,8.4181,4.3421,,,,,,,,,,801.0,-2.86,-40.43,-42.37,92.61,-46.19,24.09,5.0,1017.35,54.258,50.375328,-4.138703,175.0,NaN,,0.0,11.0,,15 / 27,"$GPGSV,3,3,12,26,60,157,36,27,50,277,22,29,05,081,,31,00,000,*79::$GPGGA,183519,5022.519541,N,00408.322178,W,2,10,0.9,128.0,M,47.0,M,,*5D::$GPVTG,,T,,M,0.0,N,0.0,K,D*26::$GLGSV,3,3,10,76,02,338,,69,07,116,*61::$GPRMC,183519,A,5022.519541,N,00408.322178,W,0.0,,260417,4.8,W,D*34::$GPGSA,A,3,04,07,08,10,16,18,20,21,26,27,,,1.2,0.9,0.8*34",6217,2017-04-26 19:35:42:812
-2.1874,7.5884,5.328,,,,,,,,,,801.0,-5.93,-38.35,-42.52,57.54,-60.79,22.68,5.0,1017.36,54.258,50.375328,-4.138703,175.0,NaN,,0.0,11.0,,15 / 27,"$GPGSV,3,3,12,26,60,157,36,27,50,277,22,29,05,081,,31,00,000,*79::$GPGGA,183519,5022.519541,N,00408.322178,W,2,10,0.9,128.0,M,47.0,M,,*5D::$GPVTG,,T,,M,0.0,N,0.0,K,D*26::$GLGSV,3,3,10,76,02,338,,69,07,116,*61::$GPRMC,183519,A,5022.519541,N,00408.322178,W,0.0,,260417,4.8,W,D*34::$GPGSA,A,3,04,07,08,10,16,18,20,21,26,27,,,1.2,0.9,0.8*34",6417,2017-04-26 19:35:43:012
-2.1185,7.9696,5.723,,,,,,,,,,976.0,-6.98,-37.63,-42.69,73.87,-52.8,22.32,5.0,1017.4,52.244,50.375328,-4.138703,175.0,NaN,,0.0,11.0,,15 / 27,"$GPGSV,3,3,12,26,60,157,36,27,50,277,22,29,05,081,,31,00,000,*79::$GPGGA,183519,5022.519541,N,00408.322178,W,2,10,0.9,128.0,M,47.0,M,,*5D::$GPVTG,,T,,M,0.0,N,0.0,K,D*26::$GLGSV,3,3,10,76,02,338,,69,07,116,*61::$GPRMC,183519,A,5022.519541,N,00408.322178,W,0.0,,260417,4.8,W,D*34::$GPGSA,A,3,04,07,08,10,16,18,20,21,26,27,,,1.2,0.9,0.8*34",6616,2017-04-26 19:35:43:211
-1.1972,7.6856,4.9147,,,,,,,,,,830.0,-6.77,-37.16,-43.3,70.54,-52.56,20.31,5.0,1017.4,57.571,50.375328,-4.138703,175.0,NaN,,0.0,11.0,,13 / 27,"$GPGSV,3,3,12,27,50,277,17,18,27,122,,29,05,081,,31,00,000,*76::$GPGGA,183520,5022.520064,N,00408.324117,W,2,09,0.9,126.0,M,47.0,M,,*56::$GPVTG,,T,,M,0.0,N,0.0,K,D*26::$GLGSV,3,3,10,76,02,338,,69,07,116,*61::$GPRMC,183520,A,5022.520064,N,00408.324117,W,0.0,,260417,4.8,W,D*39::$GPGSA,A,3,04,07,08,10,16,20,21,26,27,,,,1.2,0.9,0.8*3D",6817,2017-04-26 19:35:43:412
-2.1731,7.026,5.8047,,,,,,,,,,830.0,-6.82,-38.24,-43.0,81.53,-48.58,20.52,5.0,1017.36,57.571,50.375328,-4.138703,175.0,NaN,,0.0,11.0,,13 / 27,"$GPGSV,3,3,12,27,50,277,17,18,27,122,,29,05,081,,31,00,000,*76::$GPGGA,183520,5022.520064,N,00408.324117,W,2,09,0.9,126.0,M,47.0,M,,*56::$GPVTG,,T,,M,0.0,N,0.0,K,D*26::$GLGSV,3,3,10,76,02,338,,69,07,116,*61::$GPRMC,183520,A,5022.520064,N,00408.324117,W,0.0,,260417,4.8,W,D*39::$GPGSA,A,3,04,07,08,10,16,20,21,26,27,,,,1.2,0.9,0.8*3D",7017,2017-04-26 19:35:43:612
-2.7825,8.4202,4.9321,,,,,,,,,,836.0,-5.16,-39.15,-42.69,74.07,-56.08,29.43,5.0,1017.36,66.363,50.375328,-4.138703,175.0,NaN,,0.0,11.0,,13 / 27,"$GPGSV,3,3,12,27,50,277,17,18,27,122,,29,05,081,,31,00,000,*76::$GPGGA,183520,5022.520064,N,00408.324117,W,2,09,0.9,126.0,M,47.0,M,,*56::$GPVTG,,T,,M,0.0,N,0.0,K,D*26::$GLGSV,3,3,10,76,02,338,,69,07,116,*61::$GPRMC,183520,A,5022.520064,N,00408.324117,W,0.0,,260417,4.8,W,D*39::$GPGSA,A,3,04,07,08,10,16,20,21,26,27,,,,1.2,0.9,0.8*3D",7216,2017-04-26 19:35:43:811
-2.7414,5.5169,4.4064,,,,,,,,,,836.0,-2.15,-38.26,-44.32,89.07,-46.75,31.89,5.0,1017.36,66.363,50.375328,-4.138703,175.0,NaN,,0.0,11.0,,13 / 27,"$GPGSV,3,3,12,27,50,277,17,18,27,122,,29,05,081,,31,00,000,*76::$GPGGA,183520,5022.520064,N,00408.324117,W,2,09,0.9,126.0,M,47.0,M,,*56::$GPVTG,,T,,M,0.0,N,0.0,K,D*26::$GLGSV,3,3,10,76,02,338,,69,07,116,*61::$GPRMC,183520,A,5022.520064,N,00408.324117,W,0.0,,260417,4.8,W,D*39::$GPGSA,A,3,04,07,08,10,16,20,21,26,27,,,,1.2,0.9,0.8*3D",7417,2017-04-26 19:35:44:012
-1.7077,9.6981,5.6375,,,,,,,,,,1039.0,-2.05,-37.21,-45.99,40.39,-58.73,16.85,5.0,1017.36,65.854,50.375328,-4.138703,175.0,NaN,,0.0,11.0,,13 / 27,"$GPGSV,3,3,12,27,50,277,17,18,27,122,,29,05,081,,31,00,000,*76::$GPGGA,183520,5022.520064,N,00408.324117,W,2,09,0.9,126.0,M,47.0,M,,*56::$GPVTG,,T,,M,0.0,N,0.0,K,D*26::$GLGSV,3,3,10,76,02,338,,69,07,116,*61::$GPRMC,183520,A,5022.520064,N,00408.324117,W,0.0,,260417,4.8,W,D*39::$GPGSA,A,3,04,07,08,10,16,20,21,26,27,,,,1.2,0.9,0.8*3D",7617,2017-04-26 19:35:44:212
-1.4969,5.8073,4.4492,,,,,,,,,,756.0,-4.24,-37.98,-45.41,65.44,-51.05,18.59,5.0,1017.36,67.41,50.37533,-4.138738,173.0,NaN,,0.0,8.0,,13 / 27,"$GPGSV,3,3,12,27,50,277,23,18,27,122,,29,05,081,,31,00,000,*71::$GPGGA,183520,5022.520064,N,00408.324117,W,2,09,0.9,126.0,M,47.0,M,,*56::$GPVTG,,T,,M,0.0,N,0.0,K,D*26::$GLGSV,3,2,10,83,24,054,33,85,35,257,31,67,13,015,24,68,21,068,33*62::$GPRMC,183520,A,5022.520064,N,00408.324117,W,0.0,,260417,4.8,W,D*39::$GPGSA,A,3,04,07,08,10,16,20,21,26,27,,,,1.2,0.9,0.8*3D",7817,2017-04-26 19:35:44:412
-4.7503,8.4334,2.6458,,,,,,,,,,756.0,-3.99,-45.41,-44.12,103.01,-57.19,60.88,0.0,1017.35,67.41,50.37533,-4.138738,173.0,NaN,,0.0,8.0,,13 / 27,"$GPGSV,3,3,12,27,50,277,23,18,27,122,,29,05,081,,31,00,000,*71::$GPGGA,183521,5022.519942,N,00408.324257,W,2,09,0.9,126.0,M,47.0,M,,*57::$GPVTG,,T,,M,0.0,N,0.0,K,D*26::$GLGSV,3,3,10,76,02,338,,69,07,116,*61::$GPRMC,183521,A,5022.519942,N,00408.324257,W,0.0,,260417,4.8,W,D*38::$GPGSA,A,3,04,07,08,10,16,20,21,26,27,,,,1.2,0.9,0.8*3D",8017,2017-04-26 19:35:44:612
-3.1119,8.7748,1.2569,,,,,,,,,,456.0,-7.51,-55.62,-43.91,104.77,-69.07,68.01,0.0,1017.35,75.076,50.37533,-4.138738,173.0,NaN,,0.0,8.0,,13 / 27,"$GPGSV,3,3,12,27,50,277,23,18,27,122,,29,05,081,,31,00,000,*71::$GPGGA,183521,5022.519942,N,00408.324257,W,2,09,0.9,126.0,M,47.0,M,,*57::$GPVTG,,T,,M,0.0,N,0.0,K,D*26::$GLGSV,3,3,10,76,02,338,,69,07,116,*61::$GPRMC,183521,A,5022.519942,N,00408.324257,W,0.0,,260417,4.8,W,D*38::$GPGSA,A,3,04,07,08,10,16,20,21,26,27,,,,1.2,0.9,0.8*3D",8217,2017-04-26 19:35:44:812
-4.6702,8.9557,0.4889,,,,,,,,,,456.0,-13.23,-67.14,-39.32,134.15,-62.33,84.02,0.0,1017.36,75.076,50.37533,-4.138738,173.0,NaN,,0.0,8.0,,13 / 27,"$GPGSV,3,3,12,27,50,277,23,18,27,122,,29,05,081,,31,00,000,*71::$GPGGA,183521,5022.519942,N,00408.324257,W,2,09,0.9,126.0,M,47.0,M,,*57::$GPVTG,,T,,M,0.0,N,0.0,K,D*26::$GLGSV,3,3,10,76,02,338,,69,07,116,*61::$GPRMC,183521,A,5022.519942,N,00408.324257,W,0.0,,260417,4.8,W,D*38::$GPGSA,A,3,04,07,08,10,16,20,21,26,27,,,,1.2,0.9,0.8*3D",8417,2017-04-26 19:35:45:012
-0.2215,9.6506,-1.9728,,,,,,,,,,256.0,-13.23,-67.14,-39.32,134.15,-62.33,84.02,0.0,1017.39,64.219,50.37533,-4.138738,173.0,NaN,,0.0,8.0,,13 / 27,"$GPGSV,3,3,12,27,50,277,23,18,27,122,,29,05,081,,31,00,000,*71::$GPGGA,183521,5022.519942,N,00408.324257,W,2,09,0.9,126.0,M,47.0,M,,*57::$GPVTG,,T,,M,0.0,N,0.0,K,D*26::$GLGSV,3,3,10,76,02,338,,69,07,116,*61::$GPRMC,183521,A,5022.519942,N,00408.324257,W,0.0,,260417,4.8,W,D*38::$GPGSA,A,3,04,07,08,10,16,20,21,26,27,,,,1.2,0.9,0.8*3D",8617,2017-04-26 19:35:45:212
3.5368,9.0475,-2.2725,,,,,,,,,,289.0,-22.76,-71.58,-29.73,202.88,-78.38,173.6,0.0,1017.39,70.331,50.37533,-4.138738,173.0,NaN,,0.0,8.0,,13 / 27,"$GPGSV,3,3,12,27,50,277,23,18,27,122,,29,05,081,,31,00,000,*71::$GPGGA,183521,5022.519942,N,00408.324257,W,2,09,0.9,126.0,M,47.0,M,,*57::$GPVTG,,T,,M,0.0,N,0.0,K,D*26::$GLGSV,3,3,10,76,02,338,,69,07,116,*61::$GPRMC,183521,A,5022.519942,N,00408.324257,W,0.0,,260417,4.8,W,D*38::$GPGSA,A,3,04,07,08,10,16,20,21,26,27,,,,1.2,0.9,0.8*3D",8817,2017-04-26 19:35:45:412
1.0966,8.6955,1.3968,,,,,,,,,,289.0,-28.18,-71.11,-27.02,240.07,-65.08,-122.72,0.0,1017.37,70.331,50.37533,-4.138738,173.0,NaN,,0.0,8.0,,15 / 27,"$GPGSV,3,3,12,26,60,157,39,27,50,277,27,29,05,081,,31,00,000,*73::$GPGGA,183522,5022.518751,N,00408.323916,W,2,10,0.8,121.0,M,47.0,M,,*5E::$GPVTG,,T,,M,0.0,N,0.0,K,D*26::$GLGSV,3,3,10,76,02,338,,69,07,116,*61::$GPRMC,183522,A,5022.518751,N,00408.323916,W,0.0,,260417,4.8,W,D*3F::$GPGSA,A,3,04,07,08,10,16,18,20,21,26,27,,,1.1,0.8,0.8*36",9017,2017-04-26 19:35:45:612
-8.2409,7.0531,1.8702,,,,,,,,,,764.0,-27.2,-69.42,-31.66,3.11,-78.46,-38.13,0.0,1017.37,69.781,50.37533,-4.138738,173.0,NaN,,0.0,8.0,,15 / 27,"$GPGSV,3,3,12,26,60,157,39,27,50,277,27,29,05,081,,31,00,000,*73::$GPGGA,183522,5022.518751,N,00408.323916,W,2,10,0.8,121.0,M,47.0,M,,*5E::$GPVTG,,T,,M,0.0,N,0.0,K,D*26::$GLGSV,3,3,10,76,02,338,,69,07,116,*61::$GPRMC,183522,A,5022.518751,N,00408.323916,W,0.0,,260417,4.8,W,D*3F::$GPGSA,A,3,04,07,08,10,16,18,20,21,26,27,,,1.1,0.8,0.8*36",9217,2017-04-26 19:35:45:812
-2.1829,6.3292,11.337,,,,,,,,,,764.0,-18.57,-59.96,-46.47,136.34,-39.85,77.21,0.0,1017.35,72.297,50.37533,-4.138738,173.0,NaN,,0.0,8.0,,15 / 27,"$GPGSV,3,3,12,26,60,157,39,27,50,277,27,29,05,081,,31,00,000,*73::$GPGGA,183522,5022.518751,N,00408.323916,W,2,10,0.8,121.0,M,47.0,M,,*5E::$GPVTG,,T,,M,0.0,N,0.0,K,D*26::$GLGSV,3,3,10,76,02,338,,69,07,116,*61::$GPRMC,183522,A,5022.518751,N,00408.323916,W,0.0,,260417,4.8,W,D*3F::$GPGSA,A,3,04,07,08,10,16,18,20,21,26,27,,,1.1,0.8,0.8*36",9417,2017-04-26 19:35:46:012
-2.2199,6.1806,7.1059,,,,,,,,,,1363.0,-11.07,-42.7,-67.59,78.47,-39.7,17.35,0.0,1017.35,72.297,50.37533,-4.138738,173.0,NaN,,0.0,8.0,,15 / 27,"$GPGSV,3,3,12,26,60,157,39,27,50,277,27,29,05,081,,31,00,000,*73::$GPGGA,183522,5022.518751,N,00408.323916,W,2,10,0.8,121.0,M,47.0,M,,*5E::$GPVTG,,T,,M,0.0,N,0.0,K,D*26::$GLGSV,3,3,10,76,02,338,,69,07,116,*61::$GPRMC,183522,A,5022.518751,N,00408.323916,W,0.0,,260417,4.8,W,D*3F::$GPGSA,A,3,04,07,08,10,16,18,20,21,26,27,,,1.1,0.8,0.8*36",9617,2017-04-26 19:35:46:212
-3.027,5.9046,7.2694,,,,,,,,,,1311.0,-12.33,-34.77,-73.18,76.14,-36.86,22.61,0.0,1017.37,71.514,50.375305,-4.138725,166.0,NaN,,0.0,8.0,,15 / 27,"$GPGSV,3,3,12,26,60,157,39,27,50,277,27,29,05,081,,31,00,000,*73::$GPGGA,183522,5022.518751,N,00408.323916,W,2,10,0.8,121.0,M,47.0,M,,*5E::$GPVTG,,T,,M,0.0,N,0.0,K,D*26::$GLGSV,3,3,10,76,02,338,,69,07,116,*61::$GPRMC,183522,A,5022.518751,N,00408.323916,W,0.0,,260417,4.8,W,D*3F::$GPGSA,A,3,04,07,08,10,16,18,20,21,26,27,,,1.1,0.8,0.8*36",9817,2017-04-26 19:35:46:412
-2.6418,6.7058,6.723,,,,,,,,,,1311.0,-10.04,-33.19,-71.87,62.04,-42.87,21.45,0.0,1017.36,71.514,50.375305,-4.138725,166.0,NaN,,0.0,8.0,,14 / 27,"$GPGSV,3,3,12,27,50,277,30,08,15,270,,29,05,081,,31,00,000,*77::$GPGGA,183523,5022.518109,N,00408.323519,W,2,09,0.7,119.0,M,47.0,M,,*5B::$GPVTG,,T,,M,0.0,N,0.0,K,D*26::$GLGSV,3,3,10,76,02,338,,69,07,116,*61::$GPRMC,183523,A,5022.518109,N,00408.323519,W,0.0,,260417,4.8,W,D*36::$GPGSA,A,3,04,07,10,16,18,20,21,26,27,,,,1.0,0.7,0.7*3F",10017,2017-04-26 19:35:46:612
-3.8439,10.8589,2.9245,,,,,,,,,,1352.0,-6.35,-31.85,-69.4,70.44,-66.02,52.74,0.0,1017.36,75.783,50.375305,-4.138725,166.0,NaN,,0.0,8.0,,14 / 27,"$GPGSV,3,3,12,27,50,277,30,08,15,270,,29,05,081,,31,00,000,*77::$GPGGA,183523,5022.518109,N,00408.323519,W,2,09,0.7,119.0,M,47.0,M,,*5B::$GPVTG,,T,,M,0.0,N,0.0,K,D*26::$GLGSV,3,3,10,76,02,338,,69,07,116,*61::$GPRMC,183523,A,5022.518109,N,00408.323519,W,0.0,,260417,4.8,W,D*36::$GPGSA,A,3,04,07,10,16,18,20,21,26,27,,,,1.0,0.7,0.7*3F",10217,2017-04-26 19:35:46:812
1.3742,6.7257,5.847,,,,,,,,,,1352.0,-6.63,-31.31,-67.6,343.71,-48.23,-13.23,0.0,1017.37,71.827,50.375305,-4.138725,166.0,NaN,,0.0,8.0,,14 / 27,"$GPGSV,3,3,12,27,50,277,30,08,15,270,,29,05,081,,31,00,000,*77::$GPGGA,183523,5022.518109,N,00408.323519,W,2,09,0.7,119.0,M,47.0,M,,*5B::$GPVTG,,T,,M,0.0,N,0.0,K,D*26::$GLGSV,3,3,10,76,02,338,,69,07,116,*61::$GPRMC,183523,A,5022.518109,N,00408.323519,W,0.0,,260417,4.8,W,D*36::$GPGSA,A,3,04,07,10,16,18,20,21,26,27,,,,1.0,0.7,0.7*3F",10417,2017-04-26 19:35:47:012
-1.8902,6.8468,6.4636,,,,,,,,,,910.0,-7.91,-32.82,-67.36,51.45,-45.47,16.3,0.0,1017.37,71.827,50.375305,-4.138725,166.0,NaN,,0.0,8.0,,14 / 27,"$GPGSV,3,3,12,27,50,277,30,08,15,270,,29,05,081,,31,00,000,*77::$GPGGA,183523,5022.518109,N,00408.323519,W,2,09,0.7,119.0,M,47.0,M,,*5B::$GPVTG,,T,,M,0.0,N,0.0,K,D*26::$GLGSV,3,3,10,76,02,338,,69,07,116,*61::$GPRMC,183523,A,5022.518109,N,00408.323519,W,0.0,,260417,4.8,W,D*36::$GPGSA,A,3,04,07,10,16,18,20,21,26,27,,,,1.0,0.7,0.7*3F",10617,2017-04-26 19:35:47:212
-2.1919,7.4141,5.3824,,,,,,,,,,910.0,-6.06,-34.49,-66.83,49.77,-51.91,22.16,0.0,1017.35,72.366,50.375305,-4.138725,166.0,NaN,,0.0,8.0,,14 / 27,"$GPGSV,3,3,12,27,50,277,30,08,15,270,,29,05,081,,31,00,000,*77::$GPGGA,183523,5022.518109,N,00408.323519,W,2,09,0.7,119.0,M,47.0,M,,*5B::$GPVTG,,T,,M,0.0,N,0.0,K,D*26::$GLGSV,3,3,10,76,02,338,,69,07,116,*61::$GPRMC,183523,A,5022.518109,N,00408.323519,W,0.0,,260417,4.8,W,D*36::$GPGSA,A,3,04,07,10,16,18,20,21,26,27,,,,1.0,0.7,0.7*3F",10823,2017-04-26 19:35:47:418
-3.3493,6.8632,5.8958,,,,,,,,,,944.0,-2.9,-35.09,-66.52,66.14,-45.35,29.6,0.0,1017.37,72.366,50.375305,-4.138725,166.0,NaN,,0.0,8.0,,14 / 27,"$GPGSV,3,3,12,27,50,277,29,08,15,270,,29,05,081,,31,00,000,*7F::$GPGGA,183524,5022.517831,N,00408.323178,W,2,09,0.7,119.0,M,47.0,M,,*52::$GPVTG,,T,,M,0.0,N,0.0,K,D*26::$GLGSV,3,3,10,76,02,338,,69,07,116,*61::$GPRMC,183524,A,5022.517831,N,00408.323178,W,0.0,,260417,4.8,W,D*3F::$GPGSA,A,3,04,07,10,16,18,20,21,26,27,,,,1.0,0.7,0.7*3F",11018,2017-04-26 19:35:47:613
-3.4371,6.5595,6.0035,,,,,,,,,,1000.0,-1.71,-34.75,-66.89,68.32,-43.48,29.79,0.0,1017.37,62.069,50.375305,-4.138725,166.0,NaN,,0.0,8.0,,14 / 27,"$GPGSV,3,3,12,27,50,277,29,08,15,270,,29,05,081,,31,00,000,*7F::$GPGGA,183524,5022.517831,N,00408.323178,W,2,09,0.7,119.0,M,47.0,M,,*52::$GPVTG,,T,,M,0.0,N,0.0,K,D*26::$GLGSV,3,3,10,76,02,338,,69,07,116,*61::$GPRMC,183524,A,5022.517831,N,00408.323178,W,0.0,,260417,4.8,W,D*3F::$GPGSA,A,3,04,07,10,16,18,20,21,26,27,,,,1.0,0.7,0.7*3F",11217,2017-04-26 19:35:47:812
-4.6722,6.972,5.2213,,,,,,,,,,1000.0,-1.71,-34.75,-66.89,68.32,-43.48,29.79,0.0,1017.39,68.226,50.375305,-4.138725,166.0,NaN,,0.0,8.0,,14 / 27,"$GPGSV,3,3,12,27,50,277,29,08,15,270,,29,05,081,,31,00,000,*7F::$GPGGA,183524,5022.517831,N,00408.323178,W,2,09,0.7,119.0,M,47.0,M,,*52::$GPVTG,,T,,M,0.0,N,0.0,K,D*26::$GLGSV,3,3,10,76,02,338,,69,07,116,*61::$GPRMC,183524,A,5022.517831,N,00408.323178,W,0.0,,260417,4.8,W,D*3F::$GPGSA,A,3,04,07,10,16,18,20,21,26,27,,,,1.0,0.7,0.7*3F",11417,2017-04-26 19:35:48:012
-0.6389,7.6366,5.5316,,,,,,,,,,584.0,-0.25,-36.53,-66.07,79.11,-44.86,41.82,0.0,1017.39,68.226,50.375305,-4.138725,166.0,NaN,,0.0,8.0,,14 / 27,"$GPGSV,3,3,12,27,50,277,29,08,15,270,,29,05,081,,31,00,000,*7F::$GPGGA,183524,5022.517831,N,00408.323178,W,2,09,0.7,119.0,M,47.0,M,,*52::$GPVTG,,T,,M,0.0,N,0.0,K,D*26::$GLGSV,3,3,10,76,02,338,,69,07,116,*61::$GPRMC,183524,A,5022.517831,N,00408.323178,W,0.0,,260417,4.8,W,D*3F::$GPGSA,A,3,04,07,10,16,18,20,21,26,27,,,,1.0,0.7,0.7*3F",11617,2017-04-26 19:35:48:212
-0.7173,7.5187,5.8056,,,,,,,,,,584.0,0.51,-38.41,-65.12,12.21,-53.9,6.59,0.0,1017.35,61.04,50.375305,-4.138725,166.0,NaN,,0.0,8.0,,14 / 27,"$GPGSV,3,3,12,27,50,277,29,08,15,270,,29,05,081,,31,00,000,*7F::$GPGGA,183524,5022.517831,N,00408.323178,W,2,09,0.7,119.0,M,47.0,M,,*52::$GPVTG,,T,,M,0.0,N,0.0,K,D*26::$GLGSV,3,3,10,76,02,338,,69,07,116,*61::$GPRMC,183524,A,5022.517831,N,00408.323178,W,0.0,,260417,4.8,W,D*3F::$GPGSA,A,3,04,07,10,16,18,20,21,26,27,,,,1.0,0.7,0.7*3F",11817,2017-04-26 19:35:48:412
-3.0083,8.1987,5.1278,,,,,,,,,,177.0,0.89,-39.89,-64.28,55.56,-54.05,30.4,0.0,1017.37,55.853,50.375282,-4.138711,164.0,NaN,,0.0,7.0,,15 / 27,"$GPGSV,3,3,12,26,60,157,39,27,50,277,30,29,05,081,,31,00,000,*75::$GPGGA,183525,5022.517032,N,00408.322646,W,2,10,0.7,117.0,M,47.0,M,,*55::$GPVTG,,T,,M,0.0,N,0.0,K,D*26::$GLGSV,3,3,10,76,02,338,,69,07,116,*61::$GPRMC,183525,A,5022.517032,N,00408.322646,W,0.0,,260417,4.8,W,D*3E::$GPGSA,A,3,04,07,08,10,16,18,20,21,26,27,,,1.0,0.7,0.7*37",12016,2017-04-26 19:35:48:611
-1.4242,7.9628,4.9844,,,,,,,,,,230.0,0.68,-39.96,-64.59,55.13,-54.05,30.4,0.0,1017.37,55.853,50.375282,-4.138711,164.0,NaN,,0.0,7.0,,15 / 27,"$GPGSV,3,3,12,26,60,157,39,27,50,277,30,29,05,081,,31,00,000,*75::$GPGGA,183525,5022.517032,N,00408.322646,W,2,10,0.7,117.0,M,47.0,M,,*55::$GPVTG,,T,,M,0.0,N,0.0,K,D*26::$GLGSV,3,3,10,76,02,338,,69,07,116,*61::$GPRMC,183525,A,5022.517032,N,00408.322646,W,0.0,,260417,4.8,W,D*3E::$GPGSA,A,3,04,07,08,10,16,18,20,21,26,27,,,1.0,0.7,0.7*37",12217,2017-04-26 19:35:48:812
-0.8723,7.728,5.5165,,,,,,,,,,230.0,-1.14,-38.96,-65.74,20.72,-54.14,8.99,0.0,1017.37,47.757,50.375282,-4.138711,164.0,NaN,,0.0,7.0,,15 / 27,"$GPGSV,3,3,12,26,60,157,39,27,50,277,30,29,05,081,,31,00,000,*75::$GPGGA,183525,5022.517032,N,00408.322646,W,2,10,0.7,117.0,M,47.0,M,,*55::$GPVTG,,T,,M,0.0,N,0.0,K,D*26::$GLGSV,3,3,10,76,02,338,,69,07,116,*61::$GPRMC,183525,A,5022.517032,N,00408.322646,W,0.0,,260417,4.8,W,D*3E::$GPGSA,A,3,04,07,08,10,16,18,20,21,26,27,,,1.0,0.7,0.7*37",12417,2017-04-26 19:35:49:012
-0.1401,7.7118,5.7291,,,,,,,,,,278.0,-3.25,-38.26,-66.6,8.5,-53.38,1.4,0.0,1017.37,47.757,50.375282,-4.138711,164.0,NaN,,0.0,7.0,,15 / 27,"$GPGSV,3,3,12,26,60,157,39,27,50,277,30,29,05,081,,31,00,000,*75::$GPGGA,183525,5022.517032,N,00408.322646,W,2,10,0.7,117.0,M,47.0,M,,*55::$GPVTG,,T,,M,0.0,N,0.0,K,D*26::$GLGSV,3,3,10,76,02,338,,69,07,116,*61::$GPRMC,183525,A,5022.517032,N,00408.322646,W,0.0,,260417,4.8,W,D*3E::$GPGSA,A,3,04,07,08,10,16,18,20,21,26,27,,,1.0,0.7,0.7*37",12616,2017-04-26 19:35:49:211
-1.5071,7.387,5.9717,,,,,,,,,,278.0,-5.47,-37.61,-67.38,40.79,-50.18,14.16,0.0,1017.36,51.115,50.375282,-4.138711,164.0,NaN,,0.0,7.0,,15 / 27,"$GPGSV,3,3,12,26,60,157,39,27,50,277,30,29,05,081,,31,00,000,*75::$GPGGA,183525,5022.517032,N,00408.322646,W,2,10,0.7,117.0,M,47.0,M,,*55::$GPVTG,,T,,M,0.0,N,0.0,K,D*26::$GLGSV,3,3,10,76,02,338,,69,07,116,*61::$GPRMC,183525,A,5022.517032,N,00408.322646,W,0.0,,260417,4.8,W,D*3E::$GPGSA,A,3,04,07,08,10,16,18,20,21,26,27,,,1.0,0.7,0.7*37",12816,2017-04-26 19:35:49:411
1.2231,6.9353,6.2339,,,,,,,,,,332.0,-8.37,-36.21,-68.43,348.61,-47.51,-11.1,0.0,1017.37,49.872,50.375282,-4.138711,164.0,NaN,,0.0,7.0,,15 / 27,"$GPGSV,3,3,12,26,60,157,33,27,50,277,29,29,05,081,,31,00,000,*77::$GPGGA,183526,5022.516874,N,00408.322738,W,2,10,0.7,116.0,M,47.0,M,,*54::$GPVTG,,T,,M,0.0,N,0.0,K,D*26::$GLGSV,3,3,10,76,02,338,,69,07,116,*61::$GPRMC,183526,A,5022.516874,N,00408.322738,W,0.0,,260417,4.8,W,D*3E::$GPGSA,A,3,04,07,08,10,16,18,20,21,26,27,,,1.0,0.7,0.7*37",13016,2017-04-26 19:35:49:611
3.364,6.4568,6.5123,,,,,,,,,,332.0,-12.94,-33.37,-70.25,314.6,-41.38,-27.32,0.0,1017.37,49.872,50.375282,-4.138711,164.0,NaN,,0.0,7.0,,15 / 27,"$GPGSV,3,3,12,26,60,157,33,27,50,277,29,29,05,081,,31,00,000,*77::$GPGGA,183526,5022.516874,N,00408.322738,W,2,10,0.7,116.0,M,47.0,M,,*54::$GPVTG,,T,,M,0.0,N,0.0,K,D*26::$GLGSV,3,3,10,76,02,338,,69,07,116,*61::$GPRMC,183526,A,5022.516874,N,00408.322738,W,0.0,,260417,4.8,W,D*3E::$GPGSA,A,3,04,07,08,10,16,18,20,21,26,27,,,1.0,0.7,0.7*37",13217,2017-04-26 19:35:49:812
3.7928,6.7723,6.4059,,,,,,,,,,409.0,-15.56,-31.56,-70.95,315.66,-42.29,-30.63,0.0,1017.38,65.575,50.375282,-4.138711,164.0,NaN,,0.0,7.0,,15 / 27,"$GPGSV,3,3,12,26,60,157,33,27,50,277,29,29,05,081,,31,00,000,*77::$GPGGA,183526,5022.516874,N,00408.322738,W,2,10,0.7,116.0,M,47.0,M,,*54::$GPVTG,,T,,M,0.0,N,0.0,K,D*26::$GLGSV,3,3,10,76,02,338,,69,07,116,*61::$GPRMC,183526,A,5022.516874,N,00408.322738,W,0.0,,260417,4.8,W,D*3E::$GPGSA,A,3,04,07,08,10,16,18,20,21,26,27,,,1.0,0.7,0.7*37",13417,2017-04-26 19:35:50:012
4.3007,6.3144,6.929,,,,,,,,,,465.0,-17.26,-30.53,-70.99,307.91,-37.75,-31.83,0.0,1017.38,65.575,50.375282,-4.138711,164.0,NaN,,0.0,7.0,,15 / 27,"$GPGSV,3,3,12,26,60,157,33,27,50,277,29,29,05,081,,31,00,000,*77::$GPGGA,183526,5022.516874,N,00408.322738,W,2,10,0.7,116.0,M,47.0,M,,*54::$GPVTG,,T,,M,0.0,N,0.0,K,D*26::$GLGSV,3,3,10,76,02,338,,69,07,116,*61::$GPRMC,183526,A,5022.516874,N,00408.322738,W,0.0,,260417,4.8,W,D*3E::$GPGSA,A,3,04,07,08,10,16,18,20,21,26,27,,,1.0,0.7,0.7*37",13617,2017-04-26 19:35:50:212
4.2554,7.0641,5.6975,,,,,,,,,,465.0,-16.65,-30.86,-70.02,311.15,-44.81,-36.76,0.0,1017.36,59.591,50.375282,-4.138711,164.0,NaN,,0.0,7.0,,15 / 27,"$GPGSV,3,3,12,26,60,157,33,27,50,277,29,29,05,081,,31,00,000,*77::$GPGGA,183526,5022.516874,N,00408.322738,W,2,10,0.7,116.0,M,47.0,M,,*54::$GPVTG,,T,,M,0.0,N,0.0,K,D*26::$GLGSV,3,3,10,76,02,338,,69,07,116,*61::$GPRMC,183526,A,5022.516874,N,00408.322738,W,0.0,,260417,4.8,W,D*3E::$GPGSA,A,3,04,07,08,10,16,18,20,21,26,27,,,1.0,0.7,0.7*37",13816,2017-04-26 19:35:50:411
2.7716,8.2031,3.5742,,,,,,,,,,275.0,-16.65,-30.86,-70.02,311.15,-44.81,-36.76,0.0,1017.35,60.333,50.375282,-4.138711,164.0,NaN,,0.0,7.0,,15 / 27,"$GPGSV,3,3,12,26,60,157,31,27,50,277,29,29,05,081,,31,00,000,*75::$GPGGA,183527,5022.516890,N,00408.322808,W,2,10,0.6,115.0,M,47.0,M,,*51::$GPVTG,,T,,M,0.0,N,0.0,K,D*26::$GLGSV,3,3,10,76,02,338,,69,07,116,*61::$GPRMC,183527,A,5022.516890,N,00408.322808,W,0.0,,260417,4.8,W,D*39::$GPGSA,A,3,04,07,08,10,16,18,20,21,26,27,,,0.9,0.6,0.7*3E",14017,2017-04-26 19:35:50:612
4.0322,5.9896,7.5816,,,,,,,,,,275.0,-14.86,-33.12,-68.56,301.67,-34.9,-28.01,0.0,1017.35,60.333,50.375282,-4.138711,164.0,NaN,,0.0,7.0,,15 / 27,"$GPGSV,3,3,12,26,60,157,31,27,50,277,29,29,05,081,,31,00,000,*75::$GPGGA,183527,5022.516890,N,00408.322808,W,2,10,0.6,115.0,M,47.0,M,,*51::$GPVTG,,T,,M,0.0,N,0.0,K,D*26::$GLGSV,3,3,10,76,02,338,,69,07,116,*61::$GPRMC,183527,A,5022.516890,N,00408.322808,W,0.0,,260417,4.8,W,D*39::$GPGSA,A,3,04,07,08,10,16,18,20,21,26,27,,,0.9,0.6,0.7*3E",14217,2017-04-26 19:35:50:812
4.0335,5.9711,7.4809,,,,,,,,,,351.0,-12.83,-35.33,-67.84,30.9,-62.05,9.84,0.0,1017.34,63.661,50.375282,-4.138711,164.0,NaN,,0.0,7.0,,15 / 27,"$GPGSV,3,3,12,26,60,157,31,27,50,277,29,29,05,081,,31,00,000,*75::$GPGGA,183527,5022.516890,N,00408.322808,W,2,10,0.6,115.0,M,47.0,M,,*51::$GPVTG,,T,,M,0.0,N,0.0,K,D*26::$GLGSV,3,3,10,76,02,338,,69,07,116,*61::$GPRMC,183527,A,5022.516890,N,00408.322808,W,0.0,,260417,4.8,W,D*39::$GPGSA,A,3,04,07,08,10,16,18,20,21,26,27,,,0.9,0.6,0.7*3E",14417,2017-04-26 19:35:51:012
3.7794,7.5763,6.5299,,,,,,,,,,351.0,-11.16,-36.52,-67.19,286.68,-35.09,-28.33,0.0,1017.34,68.936,50.375282,-4.138711,164.0,NaN,,0.0,7.0,,15 / 27,"$GPGSV,3,3,12,26,60,157,31,27,50,277,29,29,05,081,,31,00,000,*75::$GPGGA,183527,5022.516890,N,00408.322808,W,2,10,0.6,115.0,M,47.0,M,,*51::$GPVTG,,T,,M,0.0,N,0.0,K,D*26::$GLGSV,3,3,10,76,02,338,,69,07,116,*61::$GPRMC,183527,A,5022.516890,N,00408.322808,W,0.0,,260417,4.8,W,D*39::$GPGSA,A,3,04,07,08,10,16,18,20,21,26,27,,,0.9,0.6,0.7*3E",14617,2017-04-26 19:35:51:212
3.7794,7.5763,6.5299,,,,,,,,,,351.0,-9.33,-36.98,-66.64,305.19,-45.12,-30.06,0.0,1017.34,68.936,50.375282,-4.138711,164.0,NaN,,0.0,7.0,,15 / 27,"$GPGSV,3,3,12,26,60,157,31,27,50,277,29,29,05,081,,31,00,000,*75::$GPGGA,183527,5022.516890,N,00408.322808,W,2,10,0.6,115.0,M,47.0,M,,*51::$GPVTG,,T,,M,0.0,N,0.0,K,D*26::$GLGSV,3,3,10,76,02,338,,69,07,116,*61::$GPRMC,183527,A,5022.516890,N,00408.322808,W,0.0,,260417,4.8,W,D*39::$GPGSA,A,3,04,07,08,10,16,18,20,21,26,27,,,0.9,0.6,0.7*3E",14817,2017-04-26 19:35:51:412
-0.7169,8.1505,5.2392,,,,,,,,,,435.0,-7.99,-36.59,-65.48,26.91,-57.02,7.79,0.0,1017.34,66.541,50.375298,-4.138731,163.0,NaN,,5.4,7.0,10.0,13 / 27,"$GPGSV,3,3,12,27,50,277,39,18,27,122,,29,05,081,,31,00,000,*7A::$GPGGA,183528,5022.517698,N,00408.323859,W,2,09,0.9,116.0,M,47.0,M,,*58::$GPVTG,10.0,T,10.0,M,2.9,N,5.4,K,D*2C::$GLGSV,3,3,10,76,02,338,,69,07,116,*61::$GPRMC,183528,A,5022.517698,N,00408.323859,W,2.9,10.0,260417,4.8,W,D*20::$GPGSA,A,3,04,07,08,10,16,20,21,26,27,,,,1.2,0.9,0.8*3D",15020,2017-04-26 19:35:51:615
4.5403,7.0714,6.206,,,,,,,,,,435.0,-7.51,-35.68,-64.54,290.93,-42.6,-36.19,0.0,1017.34,66.541,50.375298,-4.138731,163.0,NaN,,5.4,7.0,10.0,13 / 27,"$GPGSV,3,3,12,27,50,277,39,18,27,122,,29,05,081,,31,00,000,*7A::$GPGGA,183528,5022.517698,N,00408.323859,W,2,09,0.9,116.0,M,47.0,M,,*58::$GPVTG,10.0,T,10.0,M,2.9,N,5.4,K,D*2C::$GLGSV,3,3,10,76,02,338,,69,07,116,*61::$GPRMC,183528,A,5022.517698,N,00408.323859,W,2.9,10.0,260417,4.8,W,D*20::$GPGSA,A,3,04,07,08,10,16,20,21,26,27,,,,1.2,0.9,0.8*3D",15217,2017-04-26 19:35:51:812
-0.8137,8.446,4.8829,,,,,,,,,,389.0,-7.58,-35.18,-64.38,27.33,-59.63,9.46,0.0,1017.34,68.333,50.375298,-4.138731,163.0,NaN,,5.4,7.0,10.0,13 / 27,"$GPGSV,3,3,12,27,50,277,39,18,27,122,,29,05,081,,31,00,000,*7A::$GPGGA,183528,5022.517698,N,00408.323859,W,2,09,0.9,116.0,M,47.0,M,,*58::$GPVTG,10.0,T,10.0,M,2.9,N,5.4,K,D*2C::$GLGSV,3,3,10,76,02,338,,69,07,116,*61::$GPRMC,183528,A,5022.517698,N,00408.323859,W,2.9,10.0,260417,4.8,W,D*20::$GPGSA,A,3,04,07,08,10,16,20,21,26,27,,,,1.2,0.9,0.8*3D",15417,2017-04-26 19:35:52:012
0.9217,7.5853,5.5598,,,,,,,,,,447.0,-7.06,-34.98,-64.38,353.39,-53.39,-9.41,0.0,1017.34,71.829,50.375298,-4.138731,163.0,NaN,,5.4,7.0,10.0,13 / 27,"$GPGSV,3,3,12,27,50,277,39,18,27,122,,29,05,081,,31,00,000,*7A::$GPGGA,183528,5022.517698,N,00408.323859,W,2,09,0.9,116.0,M,47.0,M,,*58::$GPVTG,10.0,T,10.0,M,2.9,N,5.4,K,D*2C::$GLGSV,3,3,10,76,02,338,,69,07,116,*61::$GPRMC,183528,A,5022.517698,N,00408.323859,W,2.9,10.0,260417,4.8,W,D*20::$GPGSA,A,3,04,07,08,10,16,20,21,26,27,,,,1.2,0.9,0.8*3D",15617,2017-04-26 19:35:52:212
1.0989,7.3507,5.9451,,,,,,,,,,447.0,-6.25,-34.62,-64.63,348.06,-50.56,-10.47,0.0,1017.35,71.829,50.375298,-4.138731,163.0,NaN,,5.4,7.0,10.0,13 / 27,"$GPGSV,3,3,12,27,50,277,39,18,27,122,,29,05,081,,31,00,000,*7A::$GPGGA,183528,5022.517698,N,00408.323859,W,2,09,0.9,116.0,M,47.0,M,,*58::$GPVTG,10.0,T,10.0,M,2.9,N,5.4,K,D*2C::$GLGSV,3,3,10,76,02,338,,69,07,116,*61::$GPRMC,183528,A,5022.517698,N,00408.323859,W,2.9,10.0,260417,4.8,W,D*20::$GPGSA,A,3,04,07,08,10,16,20,21,26,27,,,,1.2,0.9,0.8*3D",15817,2017-04-26 19:35:52:412
1.8111,7.7864,5.6086,,,,,,,,,,311.0,-6.27,-33.68,-64.1,3.05,-47.77,-4.18,0.0,1017.33,64.572,50.375298,-4.138731,163.0,NaN,,5.4,7.0,10.0,13 / 27,"$GPGSV,3,3,12,27,50,277,38,18,27,122,,29,05,081,,31,00,000,*7B::$GPGGA,183529,5022.517922,N,00408.324630,W,2,09,0.9,114.0,M,47.0,M,,*53::$GPVTG,10.0,T,10.0,M,2.4,N,4.5,K,D*21::$GLGSV,3,3,10,76,02,338,,69,07,116,*61::$GPRMC,183529,A,5022.517922,N,00408.324630,W,2.4,10.0,260417,4.8,W,D*24::$GPGSA,A,3,04,07,08,10,16,20,21,26,27,,,,1.2,0.9,0.8*3D",16018,2017-04-26 19:35:52:613
1.8111,7.7864,5.6086,,,,,,,,,,311.0,-7.32,-33.21,-63.71,336.81,-52.88,-17.9,0.0,1017.33,64.572,50.375298,-4.138731,163.0,NaN,,5.4,7.0,10.0,13 / 27,"$GPGSV,3,3,12,27,50,277,38,18,27,122,,29,05,081,,31,00,000,*7B::$GPGGA,183529,5022.517922,N,00408.324630,W,2,09,0.9,114.0,M,47.0,M,,*53::$GPVTG,10.0,T,10.0,M,2.4,N,4.5,K,D*21::$GLGSV,3,3,10,76,02,338,,69,07,116,*61::$GPRMC,183529,A,5022.517922,N,00408.324630,W,2.4,10.0,260417,4.8,W,D*24::$GPGSA,A,3,04,07,08,10,16,20,21,26,27,,,,1.2,0.9,0.8*3D",16217,2017-04-26 19:35:52:812
-2.7081,8.1287,5.5315,,,,,,,,,,259.0,-9.63,-33.65,-63.04,60.14,-52.85,26.09,0.0,1017.35,71.484,50.375298,-4.138731,163.0,NaN,,5.4,7.0,10.0,13 / 27,"$GPGSV,3,3,12,27,50,277,38,18,27,122,,29,05,081,,31,00,000,*7B::$GPGGA,183529,5022.517922,N,00408.324630,W,2,09,0.9,114.0,M,47.0,M,,*53::$GPVTG,10.0,T,10.0,M,2.4,N,4.5,K,D*21::$GLGSV,3,3,10,76,02,338,,69,07,116,*61::$GPRMC,183529,A,5022.517922,N,00408.324630,W,2.4,10.0,260417,4.8,W,D*24::$GPGSA,A,3,04,07,08,10,16,20,21,26,27,,,,1.2,0.9,0.8*3D",16417,2017-04-26 19:35:53:012
-1.7598,7.4664,5.7149,,,,,,,,,,259.0,-11.76,-33.88,-63.08,52.55,-51.31,17.12,0.0,1017.35,71.593,50.375298,-4.138731,163.0,NaN,,5.4,7.0,10.0,13 / 27,"$GPGSV,3,3,12,27,50,277,38,18,27,122,,29,05,081,,31,00,000,*7B::$GPGGA,183529,5022.517922,N,00408.324630,W,2,09,0.9,114.0,M,47.0,M,,*53::$GPVTG,10.0,T,10.0,M,2.4,N,4.5,K,D*21::$GLGSV,3,3,10,76,02,338,,69,07,116,*61::$GPRMC,183529,A,5022.517922,N,00408.324630,W,2.4,10.0,260417,4.8,W,D*24::$GPGSA,A,3,04,07,08,10,16,20,21,26,27,,,,1.2,0.9,0.8*3D",16619,2017-04-26 19:35:53:214
-1.6021,7.608,4.9713,,,,,,,,,,267.0,-11.76,-33.88,-63.08,52.55,-51.31,17.12,0.0,1017.33,71.593,50.375298,-4.138731,163.0,NaN,,5.4,7.0,10.0,13 / 27,"$GPGSV,3,3,12,27,50,277,38,18,27,122,,29,05,081,,31,00,000,*7B::$GPGGA,183529,5022.517922,N,00408.324630,W,2,09,0.9,114.0,M,47.0,M,,*53::$GPVTG,10.0,T,10.0,M,2.4,N,4.5,K,D*21::$GLGSV,3,3,10,76,02,338,,69,07,116,*61::$GPRMC,183529,A,5022.517922,N,00408.324630,W,2.4,10.0,260417,4.8,W,D*24::$GPGSA,A,3,04,07,08,10,16,20,21,26,27,,,,1.2,0.9,0.8*3D",16817,2017-04-26 19:35:53:412
1.5195,7.1969,6.5162,,,,,,,,,,317.0,-14.06,-32.14,-62.59,358.49,-47.09,-13.13,0.0,1017.34,64.895,50.37531,-4.138757,160.0,NaN,,3.6,8.0,10.0,15 / 27,"$GPGSV,3,3,12,26,60,157,33,27,50,277,35,29,05,081,,31,00,000,*7A::$GPGGA,183530,5022.518428,N,00408.325396,W,2,10,0.8,113.0,M,47.0,M,,*55::$GPVTG,10.0,T,10.0,M,1.9,N,3.6,K,D*2B::$GLGSV,3,3,10,76,02,338,,69,07,116,*61::$GPRMC,183530,A,5022.518428,N,00408.325396,W,1.9,10.0,260417,4.8,W,D*22::$GPGSA,A,3,04,07,08,10,16,18,20,21,26,27,,,1.1,0.8,0.8*36",17016,2017-04-26 19:35:53:611
0.7482,7.069,6.8848,,,,,,,,,,317.0,-15.04,-30.57,-62.74,18.52,-45.59,-6.2,0.0,1017.34,65.117,50.37531,-4.138757,160.0,NaN,,3.6,8.0,10.0,15 / 27,"$GPGSV,3,3,12,26,60,157,33,27,50,277,35,29,05,081,,31,00,000,*7A::$GPGGA,183530,5022.518428,N,00408.325396,W,2,10,0.8,113.0,M,47.0,M,,*55::$GPVTG,10.0,T,10.0,M,1.9,N,3.6,K,D*2B::$GLGSV,3,3,10,76,02,338,,69,07,116,*61::$GPRMC,183530,A,5022.518428,N,00408.325396,W,1.9,10.0,260417,4.8,W,D*22::$GPGSA,A,3,04,07,08,10,16,18,20,21,26,27,,,1.1,0.8,0.8*36",17217,2017-04-26 19:35:53:812
0.7087,7.5639,6.2304,,,,,,,,,,392.0,-14.99,-29.77,-63.77,13.85,-50.34,-6.49,0.0,1017.34,65.117,50.37531,-4.138757,160.0,NaN,,3.6,8.0,10.0,15 / 27,"$GPGSV,3,3,12,26,60,157,33,27,50,277,35,29,05,081,,31,00,000,*7A::$GPGGA,183530,5022.518428,N,00408.325396,W,2,10,0.8,113.0,M,47.0,M,,*55::$GPVTG,10.0,T,10.0,M,1.9,N,3.6,K,D*2B::$GLGSV,3,3,10,76,02,338,,69,07,116,*61::$GPRMC,183530,A,5022.518428,N,00408.325396,W,1.9,10.0,260417,4.8,W,D*22::$GPGSA,A,3,04,07,08,10,16,18,20,21,26,27,,,1.1,0.8,0.8*36",17418,2017-04-26 19:35:54:013
0.8352,7.7677,5.9759,,,,,,,,,,392.0,-14.08,-29.24,-65.01,17.84,-56.61,-1.39,0.0,1017.34,71.096,50.37531,-4.138757,160.0,NaN,,3.6,8.0,10.0,15 / 27,"$GPGSV,3,3,12,26,60,157,33,27,50,277,35,29,05,081,,31,00,000,*7A::$GPGGA,183530,5022.518428,N,00408.325396,W,2,10,0.8,113.0,M,47.0,M,,*55::$GPVTG,10.0,T,10.0,M,1.9,N,3.6,K,D*2B::$GLGSV,3,3,10,76,02,338,,69,07,116,*61::$GPRMC,183530,A,5022.518428,N,00408.325396,W,1.9,10.0,260417,4.8,W,D*22::$GPGSA,A,3,04,07,08,10,16,18,20,21,26,27,,,1.1,0.8,0.8*36",17617,2017-04-26 19:35:54:212
-0.0424,7.998,6.2023,,,,,,,,,,572.0,-12.06,-30.11,-65.86,4.55,-52.16,-7.96,0.0,1017.34,71.096,50.37531,-4.138757,160.0,NaN,,3.6,8.0,10.0,15 / 27,"$GPGSV,3,3,12,26,60,157,33,27,50,277,35,29,05,081,,31,00,000,*7A::$GPGGA,183530,5022.518428,N,00408.325396,W,2,10,0.8,113.0,M,47.0,M,,*55::$GPVTG,10.0,T,10.0,M,1.9,N,3.6,K,D*2B::$GLGSV,3,3,10,76,02,338,,69,07,116,*61::$GPRMC,183530,A,5022.518428,N,00408.325396,W,1.9,10.0,260417,4.8,W,D*22::$GPGSA,A,3,04,07,08,10,16,18,20,21,26,27,,,1.1,0.8,0.8*36",17817,2017-04-26 19:35:54:412
1.8375,7.2148,6.0221,,,,,,,,,,505.0,-10.05,-30.83,-65.44,17.91,-52.21,0.39,0.0,1017.31,66.717,50.37531,-4.138757,160.0,NaN,,3.6,8.0,10.0,15 / 27,"$GPGSV,3,3,12,26,60,157,23,27,50,277,40,29,05,081,,31,00,000,*79::$GPGGA,183531,5022.518768,N,00408.327095,W,2,10,0.8,109.0,M,47.0,M,,*5A::$GPVTG,8.4,T,8.4,M,4.6,N,8.5,K,D*29::$GLGSV,3,3,10,76,02,338,,69,07,116,*61::$GPRMC,183531,A,5022.518768,N,00408.327095,W,4.6,8.4,260417,4.8,W,D*11::$GPGSA,A,3,04,07,08,10,16,18,20,21,26,27,,,1.1,0.8,0.8*36",18017,2017-04-26 19:35:54:612
1.494,7.4984,4.9875,,,,,,,,,,505.0,-8.18,-31.18,-65.56,338.14,-48.89,-16.97,0.0,1017.31,67.955,50.37531,-4.138757,160.0,NaN,,3.6,8.0,10.0,15 / 27,"$GPGSV,3,3,12,26,60,157,23,27,50,277,40,29,05,081,,31,00,000,*79::$GPGGA,183531,5022.518768,N,00408.327095,W,2,10,0.8,109.0,M,47.0,M,,*5A::$GPVTG,8.4,T,8.4,M,4.6,N,8.5,K,D*29::$GLGSV,3,3,10,76,02,338,,69,07,116,*61::$GPRMC,183531,A,5022.518768,N,00408.327095,W,4.6,8.4,260417,4.8,W,D*11::$GPGSA,A,3,04,07,08,10,16,18,20,21,26,27,,,1.1,0.8,0.8*36",18217,2017-04-26 19:35:54:812
0.6406,7.3429,6.7071,,,,,,,,,,366.0,-6.81,-31.14,-65.16,341.21,-55.23,-16.68,0.0,1017.34,67.955,50.37531,-4.138757,160.0,NaN,,3.6,8.0,10.0,15 / 27,"$GPGSV,3,3,12,26,60,157,23,27,50,277,40,29,05,081,,31,00,000,*79::$GPGGA,183531,5022.518768,N,00408.327095,W,2,10,0.8,109.0,M,47.0,M,,*5A::$GPVTG,8.4,T,8.4,M,4.6,N,8.5,K,D*29::$GLGSV,3,3,10,76,02,338,,69,07,116,*61::$GPRMC,183531,A,5022.518768,N,00408.327095,W,4.6,8.4,260417,4.8,W,D*11::$GPGSA,A,3,04,07,08,10,16,18,20,21,26,27,,,1.1,0.8,0.8*36",18417,2017-04-26 19:35:55:012
0.4143,7.5366,5.8601,,,,,,,,,,366.0,-7.21,-30.92,-65.02,1.66,-47.46,-5.46,0.0,1017.34,68.692,50.37531,-4.138757,160.0,NaN,,3.6,8.0,10.0,15 / 27,"$GPGSV,3,3,12,26,60,157,23,27,50,277,40,29,05,081,,31,00,000,*79::$GPGGA,183531,5022.518768,N,00408.327095,W,2,10,0.8,109.0,M,47.0,M,,*5A::$GPVTG,8.4,T,8.4,M,4.6,N,8.5,K,D*29::$GLGSV,3,3,10,76,02,338,,69,07,116,*61::$GPRMC,183531,A,5022.518768,N,00408.327095,W,4.6,8.4,260417,4.8,W,D*11::$GPGSA,A,3,04,07,08,10,16,18,20,21,26,27,,,1.1,0.8,0.8*36",18617,2017-04-26 19:35:55:212
-0.6422,7.129,6.0555,,,,,,,,,,291.0,-9.28,-30.99,-66.01,28.71,-49.5,6.05,0.0,1017.34,68.692,50.375328,-4.138798,154.0,NaN,,9.5,6.0,4.0,15 / 27,"$GPGSV,3,3,12,26,60,157,23,27,50,277,40,29,05,081,,31,00,000,*79::$GPGGA,183531,5022.518768,N,00408.327095,W,2,10,0.8,109.0,M,47.0,M,,*5A::$GPVTG,8.4,T,8.4,M,4.6,N,8.5,K,D*29::$GLGSV,3,3,10,76,02,338,,69,07,116,*61::$GPRMC,183531,A,5022.518768,N,00408.327095,W,4.6,8.4,260417,4.8,W,D*11::$GPGSA,A,3,04,07,08,10,16,18,20,21,26,27,,,1.1,0.8,0.8*36",18817,2017-04-26 19:35:55:412
-0.6422,7.129,6.0555,,,,,,,,,,370.0,-11.3,-31.54,-66.38,32.37,-49.5,6.05,0.0,1017.34,70.503,50.375328,-4.138798,154.0,NaN,,9.5,6.0,4.0,16 / 27,"$GPGSV,3,3,12,26,60,157,31,27,50,277,37,29,05,081,21,31,00,000,*79::$GPGGA,183532,5022.519791,N,00408.327873,W,2,11,0.8,107.0,M,47.0,M,,*51::$GPVTG,4.0,T,4.0,M,5.1,N,9.5,K,D*2E::$GLGSV,3,3,10,76,02,338,,69,07,116,*61::$GPRMC,183532,A,5022.519791,N,00408.327873,W,5.1,4.0,260417,4.8,W,D*1B::$GPGSA,A,3,04,07,08,10,16,18,20,21,26,27,29,,1.1,0.8,0.7*32",19017,2017-04-26 19:35:55:612
1.2743,7.3978,6.6946,,,,,,,,,,370.0,-12.41,-31.99,-66.71,72.75,-55.26,41.38,0.0,1017.35,67.57,50.375328,-4.138798,154.0,NaN,,9.5,6.0,4.0,16 / 27,"$GPGSV,3,3,12,26,60,157,31,27,50,277,37,29,05,081,21,31,00,000,*79::$GPGGA,183532,5022.519791,N,00408.327873,W,2,11,0.8,107.0,M,47.0,M,,*51::$GPVTG,4.0,T,4.0,M,5.1,N,9.5,K,D*2E::$GLGSV,3,3,10,76,02,338,,69,07,116,*61::$GPRMC,183532,A,5022.519791,N,00408.327873,W,5.1,4.0,260417,4.8,W,D*1B::$GPGSA,A,3,04,07,08,10,16,18,20,21,26,27,29,,1.1,0.8,0.7*32",19217,2017-04-26 19:35:55:812
0.1134,7.9145,5.9544,,,,,,,,,,375.0,-12.7,-32.79,-67.5,0.11,-47.35,-10.78,0.0,1017.33,67.57,50.375328,-4.138798,154.0,NaN,,9.5,6.0,4.0,16 / 27,"$GPGSV,3,3,12,26,60,157,31,27,50,277,37,29,05,081,21,31,00,000,*79::$GPGGA,183532,5022.519791,N,00408.327873,W,2,11,0.8,107.0,M,47.0,M,,*51::$GPVTG,4.0,T,4.0,M,5.1,N,9.5,K,D*2E::$GLGSV,3,3,10,76,02,338,,69,07,116,*61::$GPRMC,183532,A,5022.519791,N,00408.327873,W,5.1,4.0,260417,4.8,W,D*1B::$GPGSA,A,3,04,07,08,10,16,18,20,21,26,27,29,,1.1,0.8,0.7*32",19417,2017-04-26 19:35:56:012
1.3271,7.1655,6.582,,,,,,,,,,375.0,-12.7,-32.79,-67.5,0.11,-47.35,-10.78,0.0,1017.33,67.259,50.375328,-4.138798,154.0,NaN,,9.5,6.0,4.0,16 / 27,"$GPGSV,3,3,12,26,60,157,31,27,50,277,37,29,05,081,21,31,00,000,*79::$GPGGA,183532,5022.519791,N,00408.327873,W,2,11,0.8,107.0,M,47.0,M,,*51::$GPVTG,4.0,T,4.0,M,5.1,N,9.5,K,D*2E::$GLGSV,3,3,10,76,02,338,,69,07,116,*61::$GPRMC,183532,A,5022.519791,N,00408.327873,W,5.1,4.0,260417,4.8,W,D*1B::$GPGSA,A,3,04,07,08,10,16,18,20,21,26,27,29,,1.1,0.8,0.7*32",19617,2017-04-26 19:35:56:212
0.2689,7.4282,5.6443,,,,,,,,,,324.0,-12.94,-34.08,-67.02,358.92,-46.86,-11.4,0.0,1017.34,68.661,50.375328,-4.138798,154.0,NaN,,9.5,6.0,4.0,16 / 27,"$GPGSV,3,3,12,26,60,157,31,27,50,277,37,29,05,081,21,31,00,000,*79::$GPGGA,183532,5022.519791,N,00408.327873,W,2,11,0.8,107.0,M,47.0,M,,*51::$GPVTG,4.0,T,4.0,M,5.1,N,9.5,K,D*2E::$GLGSV,3,3,10,76,02,338,,69,07,116,*61::$GPRMC,183532,A,5022.519791,N,00408.327873,W,5.1,4.0,260417,4.8,W,D*1B::$GPGSA,A,3,04,07,08,10,16,18,20,21,26,27,29,,1.1,0.8,0.7*32",19816,2017-04-26 19:35:56:411
-0.0124,7.8179,5.7371,,,,,,,,,,324.0,-13.2,-34.95,-65.68,17.22,-52.74,-2.73,0.0,1017.34,68.661,50.375328,-4.138798,154.0,NaN,,9.5,6.0,4.0,16 / 27,"$GPGSV,3,3,12,26,60,157,33,27,50,277,38,29,05,081,21,31,00,000,*74::$GPGGA,183533,5022.519933,N,00408.328987,W,2,11,0.8,103.0,M,47.0,M,,*57::$GPVTG,3.9,T,3.9,M,3.9,N,7.2,K,D*29::$GLGSV,3,3,10,76,02,338,,69,07,116,*61::$GPRMC,183533,A,5022.519933,N,00408.328987,W,3.9,3.9,260417,4.8,W,D*19::$GPGSA,A,3,04,07,08,10,16,18,20,21,26,27,29,,1.1,0.8,0.8*3D",20017,2017-04-26 19:35:56:612
0.461,7.4324,7.7344,,,,,,,,,,301.0,-13.74,-35.31,-64.73,24.06,-53.73,0.12,0.0,1017.33,66.589,50.375328,-4.138798,154.0,NaN,,9.5,6.0,4.0,16 / 27,"$GPGSV,3,3,12,26,60,157,33,27,50,277,38,29,05,081,21,31,00,000,*74::$GPGGA,183533,5022.519933,N,00408.328987,W,2,11,0.8,103.0,M,47.0,M,,*57::$GPVTG,3.9,T,3.9,M,3.9,N,7.2,K,D*29::$GLGSV,3,3,10,76,02,338,,69,07,116,*61::$GPRMC,183533,A,5022.519933,N,00408.328987,W,3.9,3.9,260417,4.8,W,D*19::$GPGSA,A,3,04,07,08,10,16,18,20,21,26,27,29,,1.1,0.8,0.8*3D",20217,2017-04-26 19:35:56:812
0.461,7.4324,7.7344,,,,,,,,,,322.0,-14.9,-35.38,-64.07,29.69,-43.81,-3.41,0.0,1017.33,66.589,50.375328,-4.138798,154.0,NaN,,9.5,6.0,4.0,16 / 27,"$GPGSV,3,3,12,26,60,157,33,27,50,277,38,29,05,081,21,31,00,000,*74::$GPGGA,183533,5022.519933,N,00408.328987,W,2,11,0.8,103.0,M,47.0,M,,*57::$GPVTG,3.9,T,3.9,M,3.9,N,7.2,K,D*29::$GLGSV,3,3,10,76,02,338,,69,07,116,*61::$GPRMC,183533,A,5022.519933,N,00408.328987,W,3.9,3.9,260417,4.8,W,D*19::$GPGSA,A,3,04,07,08,10,16,18,20,21,26,27,29,,1.1,0.8,0.8*3D",20417,2017-04-26 19:35:57:012
-0.4624,7.0771,5.8217,,,,,,,,,,322.0,-16.84,-35.21,-64.58,39.65,-50.47,4.54,0.0,1017.33,70.867,50.375328,-4.138798,154.0,NaN,,9.5,6.0,4.0,16 / 27,"$GPGSV,3,3,12,26,60,157,33,27,50,277,38,29,05,081,21,31,00,000,*74::$GPGGA,183533,5022.519933,N,00408.328987,W,2,11,0.8,103.0,M,47.0,M,,*57::$GPVTG,3.9,T,3.9,M,3.9,N,7.2,K,D*29::$GLGSV,3,3,10,76,02,338,,69,07,116,*61::$GPRMC,183533,A,5022.519933,N,00408.328987,W,3.9,3.9,260417,4.8,W,D*19::$GPGSA,A,3,04,07,08,10,16,18,20,21,26,27,29,,1.1,0.8,0.8*3D",20617,2017-04-26 19:35:57:212
-0.8995,7.2806,5.4402,,,,,,,,,,331.0,-18.18,-34.88,-65.8,17.72,-51.41,-6.91,0.0,1017.32,72.346,50.375355,-4.138795,148.0,NaN,,11.66,6.0,31.5,16 / 27,"$GPGSV,3,3,12,26,60,157,33,27,50,277,38,29,05,081,21,31,00,000,*74::$GPGGA,183533,5022.519933,N,00408.328987,W,2,11,0.8,103.0,M,47.0,M,,*57::$GPVTG,3.9,T,3.9,M,3.9,N,7.2,K,D*29::$GLGSV,3,3,10,76,02,338,,69,07,116,*61::$GPRMC,183533,A,5022.519933,N,00408.328987,W,3.9,3.9,260417,4.8,W,D*19::$GPGSA,A,3,04,07,08,10,16,18,20,21,26,27,29,,1.1,0.8,0.8*3D",20817,2017-04-26 19:35:57:412
1.0372,7.2087,6.327,,,,,,,,,,331.0,-18.54,-34.87,-67.31,45.57,-52.86,9.39,0.0,1017.32,72.346,50.375355,-4.138795,148.0,NaN,,11.66,6.0,31.5,16 / 27,"$GPGSV,3,3,12,26,60,157,33,27,50,277,33,29,05,081,21,31,00,000,*7F::$GPGGA,183534,5022.521419,N,00408.327686,W,2,11,0.8,101.0,M,47.0,M,,*5D::$GPVTG,31.5,T,31.5,M,6.3,N,11.7,K,D*14::$GLGSV,3,3,10,76,02,338,,69,07,116,*61::$GPRMC,183534,A,5022.521419,N,00408.327686,W,6.3,31.5,260417,4.8,W,D*23::$GPGSA,A,3,04,07,08,10,16,18,20,21,26,27,29,,1.1,0.8,0.8*3D",21016,2017-04-26 19:35:57:611
-0.1504,7.3845,6.2215,,,,,,,,,,312.0,-18.19,-36.28,-68.32,13.4,-48.35,-9.31,0.0,1017.31,69.553,50.375355,-4.138795,148.0,NaN,,11.66,6.0,31.5,16 / 27,"$GPGSV,3,3,12,26,60,157,33,27,50,277,33,29,05,081,21,31,00,000,*7F::$GPGGA,183534,5022.521419,N,00408.327686,W,2,11,0.8,101.0,M,47.0,M,,*5D::$GPVTG,31.5,T,31.5,M,6.3,N,11.7,K,D*14::$GLGSV,3,3,10,76,02,338,,69,07,116,*61::$GPRMC,183534,A,5022.521419,N,00408.327686,W,6.3,31.5,260417,4.8,W,D*23::$GPGSA,A,3,04,07,08,10,16,18,20,21,26,27,29,,1.1,0.8,0.8*3D",21217,2017-04-26 19:35:57:812
2.0911,8.3464,5.9851,,,,,,,,,,288.0,-17.14,-38.63,-67.07,35.84,-49.88,1.39,0.0,1017.3,69.553,50.375355,-4.138795,148.0,NaN,,11.66,6.0,31.5,16 / 27,"$GPGSV,3,3,12,26,60,157,33,27,50,277,33,29,05,081,21,31,00,000,*7F::$GPGGA,183534,5022.521419,N,00408.327686,W,2,11,0.8,101.0,M,47.0,M,,*5D::$GPVTG,31.5,T,31.5,M,6.3,N,11.7,K,D*14::$GLGSV,3,3,10,76,02,338,,69,07,116,*61::$GPRMC,183534,A,5022.521419,N,00408.327686,W,6.3,31.5,260417,4.8,W,D*23::$GPGSA,A,3,04,07,08,10,16,18,20,21,26,27,29,,1.1,0.8,0.8*3D",21417,2017-04-26 19:35:58:012
-2.4993,7.7914,9.0677,,,,,,,,,,288.0,-16.61,-39.89,-66.14,78.5,-39.64,15.41,0.0,1017.3,69.905,50.375355,-4.138795,148.0,NaN,,11.66,6.0,31.5,16 / 27,"$GPGSV,3,3,12,26,60,157,33,27,50,277,33,29,05,081,21,31,00,000,*7F::$GPGGA,183534,5022.521419,N,00408.327686,W,2,11,0.8,101.0,M,47.0,M,,*5D::$GPVTG,31.5,T,31.5,M,6.3,N,11.7,K,D*14::$GLGSV,3,3,10,76,02,338,,69,07,116,*61::$GPRMC,183534,A,5022.521419,N,00408.327686,W,6.3,31.5,260417,4.8,W,D*23::$GPGSA,A,3,04,07,08,10,16,18,20,21,26,27,29,,1.1,0.8,0.8*3D",21617,2017-04-26 19:35:58:212
-2.4993,7.7914,9.0677,,,,,,,,,,310.0,-15.97,-40.62,-65.58,79.17,-39.64,15.41,0.0,1017.31,71.434,50.375355,-4.138795,148.0,NaN,,11.66,6.0,31.5,15 / 27,"$GPGSV,3,3,12,26,60,157,33,27,50,277,33,29,05,081,21,31,00,000,*7F::$GPGGA,183534,5022.521419,N,00408.327686,W,2,11,0.8,101.0,M,47.0,M,,*5D::$GPVTG,31.5,T,31.5,M,6.3,N,11.7,K,D*14::$GLGSV,3,3,10,76,02,338,,69,07,116,*61::$GPRMC,183534,A,5022.521419,N,00408.327686,W,6.3,31.5,260417,4.8,W,D*23::$GPGSA,A,3,04,07,08,10,16,18,20,21,26,27,29,,1.1,0.8,0.8*3D",21817,2017-04-26 19:35:58:412
0.8482,5.9547,6.0171,,,,,,,,,,310.0,-14.66,-41.66,-65.8,18.15,-44.42,-8.02,0.0,1017.31,71.434,50.375355,-4.138795,148.0,NaN,,11.66,6.0,31.5,15 / 27,"$GPGSV,3,3,12,26,60,157,34,27,50,277,27,29,05,081,,31,00,000,*7E::$GPGGA,183535,5022.523429,N,00408.326405,W,2,10,0.9,99.0,M,47.0,M,,*65::$GPVTG,24.3,T,24.3,M,6.5,N,12.0,K,D*16::$GLGSV,3,3,10,76,02,338,,69,07,116,*61::$GPRMC,183535,A,5022.523429,N,00408.326405,W,6.5,24.3,260417,4.8,W,D*2F::$GPGSA,A,3,04,07,08,10,16,18,20,21,26,27,,,1.2,0.9,0.8*34",22017,2017-04-26 19:35:58:612
-1.1748,8.0354,8.404,,,,,,,,,,310.0,-12.92,-43.42,-65.79,60.44,-43.44,7.96,0.0,1017.29,70.561,50.375355,-4.138795,148.0,NaN,,11.66,6.0,31.5,15 / 27,"$GPGSV,3,3,12,26,60,157,34,27,50,277,27,29,05,081,,31,00,000,*7E::$GPGGA,183535,5022.523429,N,00408.326405,W,2,10,0.9,99.0,M,47.0,M,,*65::$GPVTG,24.3,T,24.3,M,6.5,N,12.0,K,D*16::$GLGSV,3,3,10,76,02,338,,69,07,116,*61::$GPRMC,183535,A,5022.523429,N,00408.326405,W,6.5,24.3,260417,4.8,W,D*2F::$GPGSA,A,3,04,07,08,10,16,18,20,21,26,27,,,1.2,0.9,0.8*34",22217,2017-04-26 19:35:58:812
0.8014,6.515,7.969,,,,,,,,,,304.0,-12.92,-43.42,-65.79,60.44,-43.44,7.96,0.0,1017.27,69.486,50.375355,-4.138795,148.0,NaN,,11.66,6.0,31.5,15 / 27,"$GPGSV,3,3,12,26,60,157,34,27,50,277,27,29,05,081,,31,00,000,*7E::$GPGGA,183535,5022.523429,N,00408.326405,W,2,10,0.9,99.0,M,47.0,M,,*65::$GPVTG,24.3,T,24.3,M,6.5,N,12.0,K,D*16::$GLGSV,3,3,10,76,02,338,,69,07,116,*61::$GPRMC,183535,A,5022.523429,N,00408.326405,W,6.5,24.3,260417,4.8,W,D*2F::$GPGSA,A,3,04,07,08,10,16,18,20,21,26,27,,,1.2,0.9,0.8*34",22417,2017-04-26 19:35:59:012
0.7964,7.584,5.9613,,,,,,,,,,304.0,-13.51,-46.45,-63.81,42.34,-51.09,3.86,0.0,1017.27,69.486,50.375355,-4.138795,148.0,NaN,,11.66,6.0,31.5,15 / 27,"$GPGSV,3,3,12,26,60,157,34,27,50,277,27,29,05,081,,31,00,000,*7E::$GPGGA,183535,5022.523429,N,00408.326405,W,2,10,0.9,99.0,M,47.0,M,,*65::$GPVTG,24.3,T,24.3,M,6.5,N,12.0,K,D*16::$GLGSV,3,3,10,76,02,338,,69,07,116,*61::$GPRMC,183535,A,5022.523429,N,00408.326405,W,6.5,24.3,260417,4.8,W,D*2F::$GPGSA,A,3,04,07,08,10,16,18,20,21,26,27,,,1.2,0.9,0.8*34",22617,2017-04-26 19:35:59:212
